stop_id,stop_lat,stop_lon,stop_name,nearest_washroom_id,washroom_latitude,washroom_longitude,distance,washroom_address
15827.0,28.561131182368,77.2008700243248,Arjun Nagar,PTU‐13‐001,28.56206,77.20727,633.5156028377365,PTU near entry point Yusuf Sarai at Aurobindo Marg
15355.0,28.56151842,77.18827149,Ch Harsukh Marg,PTU‐11‐023,28.57022,77.18604,991.8094522666112,"PTU at Nauroji Nagar Market, Ring Road"
2378.0,28.561602,77.18824,R K Puram Sec-2,PTU‐11‐023,28.57022,77.18604,982.0676335670734,"PTU at Nauroji Nagar Market, Ring Road"
12160.0,28.561602,77.18824,R K Puram Sec-2,PTU‐11‐023,28.57022,77.18604,982.0676335670734,"PTU at Nauroji Nagar Market, Ring Road"
2200.0,28.561654,77.188401,R K Puram Sec-2,PTU‐11‐023,28.57022,77.18604,980.0060554732916,"PTU at Nauroji Nagar Market, Ring Road"
11996.0,28.561654,77.188401,R K Puram Sec-2,PTU‐11‐023,28.57022,77.18604,980.0060554732916,"PTU at Nauroji Nagar Market, Ring Road"
14791.0,28.56199825,77.18854835,Green Field S,PTU‐11‐023,28.57022,77.18604,946.4665988768757,"PTU at Nauroji Nagar Market, Ring Road"
1020.0,28.5626,77.2074,Yusuf Sarai,PTU‐13‐001,28.56206,77.20727,61.37282773538492,PTU near entry point Yusuf Sarai at Aurobindo Marg
10953.0,28.5626,77.2074,Yusuf Sarai,PTU‐13‐001,28.56206,77.20727,61.37282773538492,PTU near entry point Yusuf Sarai at Aurobindo Marg
845.0,28.5627,77.2077,Yusuf Sarai,PTU‐13‐001,28.56206,77.20727,82.6315924541595,PTU near entry point Yusuf Sarai at Aurobindo Marg
10789.0,28.5627,77.2077,Yusuf Sarai,PTU‐13‐001,28.56206,77.20727,82.6315924541595,PTU near entry point Yusuf Sarai at Aurobindo Marg
4868.0,28.563067,77.18,RK Puram Sec 1-4,PTU‐12‐009,28.57064,77.18386,922.602937930282,"PTU opp. Hyatt Hotal, Palika Bhawan Ring Road"
13865.0,28.563067,77.18,RK Puram Sec 1-4,PTU‐12‐009,28.57064,77.18386,922.602937930282,"PTU opp. Hyatt Hotal, Palika Bhawan Ring Road"
14815.0,28.5632415,77.18870849999998,Safdarjung Enclave,PTU‐11‐023,28.57022,77.18604,818.5646493374122,"PTU at Nauroji Nagar Market, Ring Road"
1060.0,28.563268,77.178557,RK Puram Sec 1,PTU‐12‐009,28.57064,77.18386,969.6160904900952,"PTU opp. Hyatt Hotal, Palika Bhawan Ring Road"
10992.0,28.563268,77.178557,RK Puram Sec 1,PTU‐12‐009,28.57064,77.18386,969.6160904900952,"PTU opp. Hyatt Hotal, Palika Bhawan Ring Road"
2204.0,28.564139,77.178605,RK Puram Sec-1,PTU‐12‐009,28.57064,77.18386,886.519731044939,"PTU opp. Hyatt Hotal, Palika Bhawan Ring Road"
12000.0,28.564139,77.178605,RK Puram Sec-1,PTU‐12‐009,28.57064,77.18386,886.519731044939,"PTU opp. Hyatt Hotal, Palika Bhawan Ring Road"
15826.0,28.5642078178539,77.2005557211449,CH Harsukh Marg,PTU‐13‐010,28.56947,77.204,674.9176300931919,PTU opp. Safdarjung Hospital Gate at Ring Road
3603.0,28.564222,77.179815,RK Puram Sec-1,PTU‐12‐009,28.57064,77.18386,815.6833668676717,"PTU opp. Hyatt Hotal, Palika Bhawan Ring Road"
13126.0,28.564222,77.179815,RK Puram Sec-1,PTU‐12‐009,28.57064,77.18386,815.6833668676717,"PTU opp. Hyatt Hotal, Palika Bhawan Ring Road"
3051.0,28.56436,77.18025,RK Puram Sec-1,PTU‐12‐009,28.57064,77.18386,782.2502564066946,"PTU opp. Hyatt Hotal, Palika Bhawan Ring Road"
12715.0,28.56436,77.18025,RK Puram Sec-1,PTU‐12‐009,28.57064,77.18386,782.2502564066946,"PTU opp. Hyatt Hotal, Palika Bhawan Ring Road"
15303.0,28.56461,77.179665,R.K. Puram Sec-1,PTU‐12‐009,28.57064,77.18386,785.7537791710447,"PTU opp. Hyatt Hotal, Palika Bhawan Ring Road"
1059.0,28.564697,77.178246,R K Puram Sec-1 2,PTU‐12‐009,28.57064,77.18386,858.6466082422735,"PTU opp. Hyatt Hotal, Palika Bhawan Ring Road"
10991.0,28.564697,77.178246,R K Puram Sec-1 2,PTU‐12‐009,28.57064,77.18386,858.6466082422735,"PTU opp. Hyatt Hotal, Palika Bhawan Ring Road"
14683.0,28.5647,77.1783,R K Puram Sec-1,PTU‐12‐009,28.57064,77.18386,855.0313800374714,"PTU opp. Hyatt Hotal, Palika Bhawan Ring Road"
2379.0,28.564869,77.188919,Mohammadpur Village,PTU‐11‐023,28.57022,77.18604,658.086852477808,"PTU at Nauroji Nagar Market, Ring Road"
12161.0,28.564869,77.188919,Mohammadpur Village,PTU‐11‐023,28.57022,77.18604,658.086852477808,"PTU at Nauroji Nagar Market, Ring Road"
14719.0,28.564883,77.188917,Mohammadpur Village,PTU‐11‐023,28.57022,77.18604,656.5960772549868,"PTU at Nauroji Nagar Market, Ring Road"
2199.0,28.565068,77.189089,Mohammadpur Village,PTU‐11‐023,28.57022,77.18604,645.6365070587979,"PTU at Nauroji Nagar Market, Ring Road"
11995.0,28.565068,77.189089,Mohammadpur Village,PTU‐11‐023,28.57022,77.18604,645.6365070587979,"PTU at Nauroji Nagar Market, Ring Road"
2196.0,28.565182,77.199371,Kamal Cinema,PTU(Petrol Pump 17),28.5699922,77.1968493,588.8386691489387,150  8th Cross Rd  Block G I  Sarojini Nagar  New Delhi  Delhi 110023  India
11992.0,28.565182,77.199371,Kamal Cinema,PTU(Petrol Pump 17),28.5699922,77.1968493,588.8386691489387,150  8th Cross Rd  Block G I  Sarojini Nagar  New Delhi  Delhi 110023  India
2382.0,28.565224,77.198868,Kamal Cinema,PTU(Petrol Pump 17),28.5699922,77.1968493,565.6643730335327,150  8th Cross Rd  Block G I  Sarojini Nagar  New Delhi  Delhi 110023  India
12164.0,28.565224,77.198868,Kamal Cinema,PTU(Petrol Pump 17),28.5699922,77.1968493,565.6643730335327,150  8th Cross Rd  Block G I  Sarojini Nagar  New Delhi  Delhi 110023  India
3052.0,28.565608,77.177088,Mohan Singh Market,PTU‐12‐009,28.57064,77.18386,866.2778421997132,"PTU opp. Hyatt Hotal, Palika Bhawan Ring Road"
12716.0,28.565608,77.177088,Mohan Singh Market,PTU‐12‐009,28.57064,77.18386,866.2778421997132,"PTU opp. Hyatt Hotal, Palika Bhawan Ring Road"
2197.0,28.565983,77.194183,Green Field School,PTU‐11‐024,28.56882,77.19419,315.4607475737054,PTU at Naroji Nagar Mkt.
11993.0,28.565983,77.194183,Green Field School,PTU‐11‐024,28.56882,77.19419,315.4607475737054,PTU at Naroji Nagar Mkt.
2381.0,28.566019,77.194119,Green Field School,PTU‐11‐024,28.56882,77.19419,311.5341590980984,PTU at Naroji Nagar Mkt.
12163.0,28.566019,77.194119,Green Field School,PTU‐11‐024,28.56882,77.19419,311.5341590980984,PTU at Naroji Nagar Mkt.
2198.0,28.566185,77.191211,Safdurjang Enclave,PTU‐11‐024,28.56882,77.19419,412.896479935008,PTU at Naroji Nagar Mkt.
11994.0,28.566185,77.191211,Safdurjang Enclave,PTU‐11‐024,28.56882,77.19419,412.896479935008,PTU at Naroji Nagar Mkt.
5112.0,28.5662,77.1891,Bhikaji Kama Place,PTU‐11‐023,28.57022,77.18604,537.690825017712,"PTU at Nauroji Nagar Market, Ring Road"
13989.0,28.5662,77.1891,Bhikaji Kama Place,PTU‐11‐023,28.57022,77.18604,537.690825017712,"PTU at Nauroji Nagar Market, Ring Road"
2380.0,28.566235,77.191514,Safdarjung Enclave,PTU‐11‐024,28.56882,77.19419,388.4779475735107,PTU at Naroji Nagar Mkt.
12162.0,28.566235,77.191514,Safdarjung Enclave,PTU‐11‐024,28.56882,77.19419,388.4779475735107,PTU at Naroji Nagar Mkt.
14790.0,28.566475399999995,77.18927573,Safdarjung E,PTU(Petrol Pump 15),28.570489,77.1863887,527.8874414627164,Shaheed Sudhir Tyagi Marg  Block A  Netaji Nagar  New Delhi  Delhi 110023  India
14816.0,28.5666,77.176,Mohan Singh Market,PTU‐12‐009,28.57064,77.18386,889.3723730075044,"PTU opp. Hyatt Hotal, Palika Bhawan Ring Road"
1058.0,28.566602,77.176331,Mohan Singh Market,PTU‐12‐009,28.57064,77.18386,861.5134584776547,"PTU opp. Hyatt Hotal, Palika Bhawan Ring Road"
10990.0,28.566602,77.176331,Mohan Singh Market,PTU‐12‐009,28.57064,77.18386,861.5134584776547,"PTU opp. Hyatt Hotal, Palika Bhawan Ring Road"
14579.0,28.5668,77.1762,Mohan Singh Market,PTU‐12‐009,28.57064,77.18386,861.3326090423434,"PTU opp. Hyatt Hotal, Palika Bhawan Ring Road"
844.0,28.566983,77.20795,AIIMS,PTU‐13‐005,28.5672355,77.208159,34.71152234622652,PTU outside AIIMS at Aurbindo Marg
1021.0,28.56725,77.207733,Safdurjung Hospital / AIIMS,PTU‐13‐006,28.56739,77.20774,15.582291963492173,PTU outside Safdarjung Hospital at Aurbindo Marg
10954.0,28.56725,77.207733,Safdurjung Hospital / AIIMS,PTU‐13‐006,28.56739,77.20774,15.582291963492173,PTU outside Safdarjung Hospital at Aurbindo Marg
2627.0,28.567988,77.189402,Bhikaji Cama Place,PTU(Petrol Pump 15),28.570489,77.1863887,404.88445278514433,Shaheed Sudhir Tyagi Marg  Block A  Netaji Nagar  New Delhi  Delhi 110023  India
12364.0,28.567988,77.189402,Bhikaji Cama Place,PTU(Petrol Pump 15),28.570489,77.1863887,404.88445278514433,Shaheed Sudhir Tyagi Marg  Block A  Netaji Nagar  New Delhi  Delhi 110023  India
2825.0,28.568081,77.189577,Bhikaji Cama Place,PTU(Petrol Pump 15),28.570489,77.1863887,410.6537632754615,Shaheed Sudhir Tyagi Marg  Block A  Netaji Nagar  New Delhi  Delhi 110023  India
12532.0,28.568081,77.189577,Bhikaji Cama Place,PTU(Petrol Pump 15),28.570489,77.1863887,410.6537632754615,Shaheed Sudhir Tyagi Marg  Block A  Netaji Nagar  New Delhi  Delhi 110023  India
14604.0,28.5681,77.2086,Safderjung Hospital,PTU‐13‐005,28.5672355,77.208159,105.33446411192315,PTU outside AIIMS at Aurbindo Marg
15302.0,28.56828,77.18959,Netaji Nagar,PTU(Petrol Pump 15),28.570489,77.1863887,397.57812939459694,Shaheed Sudhir Tyagi Marg  Block A  Netaji Nagar  New Delhi  Delhi 110023  India
14630.0,28.56830057,77.18938166,Netaji Nagar,PTU(Petrol Pump 15),28.570489,77.1863887,380.3193363408221,Shaheed Sudhir Tyagi Marg  Block A  Netaji Nagar  New Delhi  Delhi 110023  India
3050.0,28.568315,77.18357,RK Puram Crossing,PTU‐12‐009,28.57064,77.18386,260.0747235404957,"PTU opp. Hyatt Hotal, Palika Bhawan Ring Road"
12714.0,28.568315,77.18357,RK Puram Crossing,PTU‐12‐009,28.57064,77.18386,260.0747235404957,"PTU opp. Hyatt Hotal, Palika Bhawan Ring Road"
1710.0,28.568767,77.216767,South Extn Kotla Petrol Pump,PTU‐13‐011,28.56889461,77.212133,452.7612112744777,PTU at AIIMS entry gate at Ring Road.
11572.0,28.568767,77.216767,South Extn Kotla Petrol Pump,PTU‐13‐011,28.56889461,77.212133,452.7612112744777,PTU at AIIMS entry gate at Ring Road.
1407.0,28.568824,77.220684,South Extension,PTU‐13‐011,28.56889461,77.212133,835.0948026621002,PTU at AIIMS entry gate at Ring Road.
11296.0,28.568824,77.220684,South Extension,PTU‐13‐011,28.56889461,77.212133,835.0948026621002,PTU at AIIMS entry gate at Ring Road.
15360.0,28.56886169121176,77.22111078008653,South Ext Kotla Petrol Pump,PTU‐13‐011,28.56889461,77.212133,876.7430843841721,PTU at AIIMS entry gate at Ring Road.
1711.0,28.568921,77.213199,AIIMS,PTU‐13‐011,28.56889461,77.212133,104.14277714495324,PTU at AIIMS entry gate at Ring Road.
11573.0,28.568921,77.213199,AIIMS,PTU‐13‐011,28.56889461,77.212133,104.14277714495324,PTU at AIIMS entry gate at Ring Road.
14729.0,28.568921000000003,77.213199,AIIMS,PTU‐13‐011,28.56889461,77.212133,104.1427771449632,PTU at AIIMS entry gate at Ring Road.
1406.0,28.569014,77.216908,South Extension,PTU‐13‐011,28.56889461,77.212133,466.4967174363241,PTU at AIIMS entry gate at Ring Road.
11295.0,28.569014,77.216908,South Extension,PTU‐13‐011,28.56889461,77.212133,466.4967174363241,PTU at AIIMS entry gate at Ring Road.
2824.0,28.569183,77.191283,Africa Avenue,PTU‐11‐016,28.56983,77.19379,255.17419984825884,"PTU near Shop no. 83, Ring Road  Mkt. Sarojini Nagar"
12531.0,28.569183,77.191283,Africa Avenue,PTU‐11‐016,28.56983,77.19379,255.17419984825884,"PTU near Shop no. 83, Ring Road  Mkt. Sarojini Nagar"
1405.0,28.569185,77.21269,AIIMS Ring Road,PTU‐13‐011,28.56889461,77.212133,63.256519139670615,PTU at AIIMS entry gate at Ring Road.
11294.0,28.569185,77.21269,AIIMS Ring Road,PTU‐13‐011,28.56889461,77.212133,63.256519139670615,PTU at AIIMS entry gate at Ring Road.
1713.0,28.569296245342525,77.19503920771328,Nauroji Nagar,PTU(Petrol Pump 16),28.5699171,77.1950759,69.1288158905258,150  8th Cross Rd  Block G I  Sarojini Nagar  New Delhi  Delhi 110023  India
11575.0,28.569296245342525,77.19503920771328,Nauroji Nagar,PTU(Petrol Pump 16),28.5699171,77.1950759,69.1288158905258,150  8th Cross Rd  Block G I  Sarojini Nagar  New Delhi  Delhi 110023  India
3266.0,28.569397,77.195886,Nauroji Nagar,PTU(Petrol Pump 16),28.5699171,77.1950759,97.99537095491824,150  8th Cross Rd  Block G I  Sarojini Nagar  New Delhi  Delhi 110023  India
12873.0,28.569397,77.195886,Nauroji Nagar,PTU(Petrol Pump 16),28.5699171,77.1950759,97.99537095491824,150  8th Cross Rd  Block G I  Sarojini Nagar  New Delhi  Delhi 110023  India
15530.0,28.569483,77.20451700000002,SJ Hospital,PTU‐13‐010,28.56947,77.204,50.50863222135234,PTU opp. Safdarjung Hospital Gate at Ring Road
1810.0,28.5695,77.2014,Raj Nagar,PTU‐13‐010,28.56947,77.204,253.92643956694667,PTU opp. Safdarjung Hospital Gate at Ring Road
11664.0,28.5695,77.2014,Raj Nagar,PTU‐13‐010,28.56947,77.204,253.92643956694667,PTU opp. Safdarjung Hospital Gate at Ring Road
1712.0,28.569541,77.203522,SJ Hospital Ring Road,PTU‐13‐010,28.56947,77.204,47.34227812822436,PTU opp. Safdarjung Hospital Gate at Ring Road
11574.0,28.569541,77.203522,SJ Hospital Ring Road,PTU‐13‐010,28.56947,77.204,47.34227812822436,PTU opp. Safdarjung Hospital Gate at Ring Road
2628.0,28.569595,77.191332,Africa Avenue,PTU‐11‐016,28.56983,77.19379,241.45504652242568,"PTU near Shop no. 83, Ring Road  Mkt. Sarojini Nagar"
12365.0,28.569595,77.191332,Africa Avenue,PTU‐11‐016,28.56983,77.19379,241.45504652242568,"PTU near Shop no. 83, Ring Road  Mkt. Sarojini Nagar"
2107.0,28.569619,77.195401,Nauroji Nagar,PTU(Petrol Pump 16),28.5699171,77.1950759,45.89833060021337,150  8th Cross Rd  Block G I  Sarojini Nagar  New Delhi  Delhi 110023  India
11913.0,28.569619,77.195401,Nauroji Nagar,PTU(Petrol Pump 16),28.5699171,77.1950759,45.89833060021337,150  8th Cross Rd  Block G I  Sarojini Nagar  New Delhi  Delhi 110023  India
14789.0,28.56965,77.19145,Africa Avenue,PTU‐11‐016,28.56983,77.19379,229.38838844201535,"PTU near Shop no. 83, Ring Road  Mkt. Sarojini Nagar"
4109.0,28.569651,77.201526,Raj Nagar,PTU‐13‐010,28.56947,77.204,242.43660252405613,PTU opp. Safdarjung Hospital Gate at Ring Road
13473.0,28.569651,77.201526,Raj Nagar,PTU‐13‐010,28.56947,77.204,242.43660252405613,PTU opp. Safdarjung Hospital Gate at Ring Road
5113.0,28.5697,77.1897,Hyatt Regency,PTU‐11‐021,28.5728,77.19005,346.39461822596365,"PTU near Gwalior Pottries, Africa Avenue,"
1714.0,28.569743,77.186793,Hyatt Hotel (GAIL),PTU(Petrol Pump 15),28.570489,77.1863887,91.86816140735982,Shaheed Sudhir Tyagi Marg  Block A  Netaji Nagar  New Delhi  Delhi 110023  India
11576.0,28.569743,77.186793,Hyatt Hotel (GAIL),PTU(Petrol Pump 15),28.570489,77.1863887,91.86816140735982,Shaheed Sudhir Tyagi Marg  Block A  Netaji Nagar  New Delhi  Delhi 110023  India
2108.0,28.569786,77.204402,SJ Hospital,PTU‐13‐010,28.56947,77.204,52.68587521382601,PTU opp. Safdarjung Hospital Gate at Ring Road
11914.0,28.569786,77.204402,SJ Hospital,PTU‐13‐010,28.56947,77.204,52.68587521382601,PTU opp. Safdarjung Hospital Gate at Ring Road
14669.0,28.5698,77.186,Hyatt Hotel (GAIL),PTU‐11‐023,28.57022,77.18604,46.86494442105588,"PTU at Nauroji Nagar Market, Ring Road"
14730.0,28.569858823902887,77.18614398501809,R K Puram M,PTU‐11‐023,28.57022,77.18604,41.424860723244265,"PTU at Nauroji Nagar Market, Ring Road"
14578.0,28.56995374148716,77.17296302318573,R K Puram Sec 10,CTU‐12‐001,28.57757,77.1778,969.7036970746937,"CTU at Shankar Camp, Moti Bagh (No‐I)"
2383.0,28.570024,77.201105,Raj Nagar,PTU‐11‐005,28.5721,77.2,254.81661759643416,PTU near Suvidha Market Sarojini Nagar
12165.0,28.570024,77.201105,Raj Nagar,PTU‐11‐005,28.5721,77.2,254.81661759643416,PTU near Suvidha Market Sarojini Nagar
4357.0,28.5701,77.1731,R K Puram Sec-7 Xing,CTU‐12‐001,28.57757,77.1778,948.9921490652893,"CTU at Shankar Camp, Moti Bagh (No‐I)"
13623.0,28.5701,77.1731,R K Puram Sec-7 Xing,CTU‐12‐001,28.57757,77.1778,948.9921490652893,"CTU at Shankar Camp, Moti Bagh (No‐I)"
2466.0,28.570143,77.185598,Hyatt Hotel,PTU‐11‐023,28.57022,77.18604,44.004480953136,"PTU at Nauroji Nagar Market, Ring Road"
12233.0,28.570143,77.185598,Hyatt Hotel,PTU‐11‐023,28.57022,77.18604,44.004480953136,"PTU at Nauroji Nagar Market, Ring Road"
15284.0,28.5702,77.173167,RK Puram Sec-10,CTU‐12‐001,28.57757,77.1778,936.0952993679392,"CTU at Shankar Camp, Moti Bagh (No‐I)"
4294.0,28.5702,77.1857,Hyatt Hotel,PTU‐11‐023,28.57022,77.18604,33.277065376341824,"PTU at Nauroji Nagar Market, Ring Road"
13593.0,28.5702,77.1857,Hyatt Hotel,PTU‐11‐023,28.57022,77.18604,33.277065376341824,"PTU at Nauroji Nagar Market, Ring Road"
1057.0,28.570222,77.17311,RK Puram Sec-10,CTU‐12‐001,28.57757,77.1778,936.6633805845448,"CTU at Shankar Camp, Moti Bagh (No‐I)"
10989.0,28.570222,77.17311,RK Puram Sec-10,CTU‐12‐001,28.57757,77.1778,936.6633805845448,"CTU at Shankar Camp, Moti Bagh (No‐I)"
1715.0,28.5705,77.1826,RK Puram Sec-12,PTU‐12‐009,28.57064,77.18386,124.02562729254804,"PTU opp. Hyatt Hotal, Palika Bhawan Ring Road"
11577.0,28.5705,77.1826,RK Puram Sec-12,PTU‐12‐009,28.57064,77.18386,124.02562729254804,"PTU opp. Hyatt Hotal, Palika Bhawan Ring Road"
3053.0,28.570577,77.172762,R K Puram Sec-7,CTU‐12‐001,28.57757,77.1778,920.147864159875,"CTU at Shankar Camp, Moti Bagh (No‐I)"
12717.0,28.570577,77.172762,R K Puram Sec-7,CTU‐12‐001,28.57757,77.1778,920.147864159875,"CTU at Shankar Camp, Moti Bagh (No‐I)"
1811.0,28.570583,77.199117,AB Block Sarojini Nagar,PTU‐11‐005,28.5721,77.2,189.44441128911336,PTU near Suvidha Market Sarojini Nagar
11665.0,28.570583,77.199117,AB Block Sarojini Nagar,PTU‐11‐005,28.5721,77.2,189.44441128911336,PTU near Suvidha Market Sarojini Nagar
14817.0,28.5706,77.1727,R K Puram Sec-7,CTU‐12‐001,28.57757,77.1778,921.2464514407326,"CTU at Shankar Camp, Moti Bagh (No‐I)"
14572.0,28.570651955760432,77.17289060354233,R K Puram Sec-7,CTU‐12‐001,28.57757,77.1778,906.4108655065954,"CTU at Shankar Camp, Moti Bagh (No‐I)"
4212.0,28.57125,77.199283,AB Block Sarojini Nagar,PTU‐11‐005,28.5721,77.2,117.62516457947372,PTU near Suvidha Market Sarojini Nagar
13538.0,28.57125,77.199283,AB Block Sarojini Nagar,PTU‐11‐005,28.5721,77.2,117.62516457947372,PTU near Suvidha Market Sarojini Nagar
22137.0,28.5713,77.1707,RK Puram Sec-9,CTU‐12‐001,28.57757,77.1778,983.2458557691598,"CTU at Shankar Camp, Moti Bagh (No‐I)"
15368.0,28.5713,77.1707,RK Puram Sec-9,CTU‐12‐001,28.57757,77.1778,983.2458557691598,"CTU at Shankar Camp, Moti Bagh (No‐I)"
2106.0,28.57133,77.181727,RK Puram Sec 13,PTU‐12‐009,28.57064,77.18386,221.97756262964853,"PTU opp. Hyatt Hotal, Palika Bhawan Ring Road"
11912.0,28.57133,77.181727,RK Puram Sec 13,PTU‐12‐009,28.57064,77.18386,221.97756262964853,"PTU opp. Hyatt Hotal, Palika Bhawan Ring Road"
454.0,28.571983,77.227667,Defence Colony (Homyopathic College),PTU‐06‐003,28.5806541,77.2253861,989.5733405014332,PTU at Pandara Road Market (Left side)
10418.0,28.571983,77.227667,Defence Colony (Homyopathic College),PTU‐06‐003,28.5806541,77.2253861,989.5733405014332,PTU at Pandara Road Market (Left side)
4425.0,28.571983000000003,77.22766700000003,Defence Colony (Homyopathic College),PTU‐06‐003,28.5806541,77.2253861,989.573340501648,PTU at Pandara Road Market (Left side)
13664.0,28.571983000000003,77.22766700000003,Defence Colony (Homyopathic College),PTU‐06‐003,28.5806541,77.2253861,989.573340501648,PTU at Pandara Road Market (Left side)
1716.0,28.5723,77.1798,RK Puram Sec-12,CTU‐12‐003,28.57653,77.17982,470.3585943838232,CTU ( Sulabh Sauchalay) at Anant Ram Dairy
11578.0,28.5723,77.1798,RK Puram Sec-12,CTU‐12‐003,28.57653,77.17982,470.3585943838232,CTU ( Sulabh Sauchalay) at Anant Ram Dairy
15339.0,28.57268325,77.18778725,R K Puram More,PTU‐12‐003,28.5733,77.18975,203.56676337601067,PTU near Taxi Stand at Africa Avenue
14200.0,28.57325,77.18995,Sarojini Nagar Depot,PTU‐12‐003,28.5733,77.18975,20.3063499231886,PTU near Taxi Stand at Africa Avenue
3165.0,28.573407,77.189995,Sarojini Nagar Depot,PTU‐11‐022,28.57359,77.19007,21.62655300058815,"PTU near Gwalior Pottries, Africa Avenue"
12803.0,28.573407,77.189995,Sarojini Nagar Depot,PTU‐11‐022,28.57359,77.19007,21.62655300058815,"PTU near Gwalior Pottries, Africa Avenue"
14583.0,28.57347691,77.17361106,R K P S V S 7,CTU‐12‐001,28.57757,77.1778,611.936204671749,"CTU at Shankar Camp, Moti Bagh (No‐I)"
14634.0,28.5735,77.2095,Kidwai Nagar,PTU(Petrol Pump 20),28.573952,77.208872,79.28974088856914,40  Sri Aurobindo Marg  Aviation Colony  INA Colony  New Delhi  Delhi 110023  India
3974.0,28.573611,77.173534,RK Puram Sec-12(Sangam Cinema),CTU‐12‐001,28.57757,77.1778,606.0764318731774,"CTU at Shankar Camp, Moti Bagh (No‐I)"
13371.0,28.573611,77.173534,RK Puram Sec-12(Sangam Cinema),CTU‐12‐001,28.57757,77.1778,606.0764318731774,"CTU at Shankar Camp, Moti Bagh (No‐I)"
1056.0,28.573643,77.173644,Sangam Cinema,CTU‐12‐001,28.57757,77.1778,596.1329952838162,"CTU at Shankar Camp, Moti Bagh (No‐I)"
10988.0,28.573643,77.173644,Sangam Cinema,CTU‐12‐001,28.57757,77.1778,596.1329952838162,"CTU at Shankar Camp, Moti Bagh (No‐I)"
843.0,28.574012,77.209568,Kidwai Nagar,PTU(Petrol Pump 20),28.573952,77.208872,68.29205592687295,40  Sri Aurobindo Marg  Aviation Colony  INA Colony  New Delhi  Delhi 110023  India
10788.0,28.574012,77.209568,Kidwai Nagar,PTU(Petrol Pump 20),28.573952,77.208872,68.29205592687295,40  Sri Aurobindo Marg  Aviation Colony  INA Colony  New Delhi  Delhi 110023  India
2422.0,28.574267,77.228733,Defence Colony,PTU‐06‐003,28.5806541,77.2253861,781.8012136984536,PTU at Pandara Road Market (Left side)
12201.0,28.574267,77.228733,Defence Colony,PTU‐06‐003,28.5806541,77.2253861,781.8012136984536,PTU at Pandara Road Market (Left side)
4144.0,28.57435,77.228817,Defence Colony,PTU‐06‐003,28.5806541,77.2253861,776.9282887153256,PTU at Pandara Road Market (Left side)
13496.0,28.57435,77.228817,Defence Colony,PTU‐06‐003,28.5806541,77.2253861,776.9282887153256,PTU at Pandara Road Market (Left side)
2105.0,28.574416,77.178621,Aradhana Enclave,CTU‐12‐003,28.57653,77.17982,262.61063286388867,CTU ( Sulabh Sauchalay) at Anant Ram Dairy
11911.0,28.574416,77.178621,Aradhana Enclave,CTU‐12‐003,28.57653,77.17982,262.61063286388867,CTU ( Sulabh Sauchalay) at Anant Ram Dairy
3043.0,28.574826,77.189878,Sarojini Nagar Depot,PTU‐12‐002,28.57522,77.18976,45.300773986448505,PTU near S. N. Depot at Africa Avenue
12707.0,28.574826,77.189878,Sarojini Nagar Depot,PTU‐12‐002,28.57522,77.18976,45.300773986448505,PTU near S. N. Depot at Africa Avenue
14670.0,28.574990000000003,77.17795,ARADHNA ENCLAVE,CTU‐12‐003,28.57653,77.17982,250.33539174692055,CTU ( Sulabh Sauchalay) at Anant Ram Dairy
1717.0,28.5752,77.1778,RK Puram Sec-12,CTU‐12‐001,28.57757,77.1778,263.53197614772364,"CTU at Shankar Camp, Moti Bagh (No‐I)"
11579.0,28.5752,77.1778,RK Puram Sec-12,CTU‐12‐001,28.57757,77.1778,263.53197614772364,"CTU at Shankar Camp, Moti Bagh (No‐I)"
1812.0,28.5752,77.199017,PS Sarojini Nagar,PTU‐11‐015,28.5757137,77.1990075,57.128366314073226,PTU Behind Bus Stand at Rind Road Market Sarojini Nagar
11666.0,28.5752,77.199017,PS Sarojini Nagar,PTU‐11‐015,28.5757137,77.1990075,57.128366314073226,PTU Behind Bus Stand at Rind Road Market Sarojini Nagar
14626.0,28.575480806919337,77.1723809838295,R. K. Puram Sec-12,CTU‐12‐002,28.57784171,77.17756125,569.9110506465909,"CTU at Shankar Camp, Moti Bagh (No‐II)"
4211.0,28.575489,77.199081,Police Station Sarojini Nagar,PTU‐11‐015,28.5757137,77.1990075,25.99593031241201,PTU Behind Bus Stand at Rind Road Market Sarojini Nagar
13537.0,28.575489,77.199081,Police Station Sarojini Nagar,PTU‐11‐015,28.5757137,77.1990075,25.99593031241201,PTU Behind Bus Stand at Rind Road Market Sarojini Nagar
4187.0,28.575644,77.172368,RK Puram Sec 9,CTU‐12‐002,28.57784171,77.17756125,562.9247421355856,"CTU at Shankar Camp, Moti Bagh (No‐II)"
13517.0,28.575644,77.172368,RK Puram Sec 9,CTU‐12‐002,28.57784171,77.17756125,562.9247421355856,"CTU at Shankar Camp, Moti Bagh (No‐II)"
1022.0,28.575667,77.209735,Kidwai Nagar,PTU‐13‐008,28.5755,77.21033,60.9970210567389,"PTU near INA Subway, Aurobindo Marg"
10955.0,28.575667,77.209735,Kidwai Nagar,PTU‐13‐008,28.5755,77.21033,60.9970210567389,"PTU near INA Subway, Aurobindo Marg"
1055.0,28.575756,77.172446,R. K. Puram Sec-12,CTU‐12‐002,28.57784171,77.17756125,550.7134707413112,"CTU at Shankar Camp, Moti Bagh (No‐II)"
10987.0,28.575756,77.172446,R. K. Puram Sec-12,CTU‐12‐002,28.57784171,77.17756125,550.7134707413112,"CTU at Shankar Camp, Moti Bagh (No‐II)"
842.0,28.5759,77.2102,INA Colony,PTU‐13‐008,28.5755,77.21033,46.25407663517105,"PTU near INA Subway, Aurobindo Marg"
10787.0,28.5759,77.2102,INA Colony,PTU‐13‐008,28.5755,77.21033,46.25407663517105,"PTU near INA Subway, Aurobindo Marg"
15545.0,28.576,77.21005,S.J. Terminal,PTU‐13‐008,28.5755,77.21033,61.95691570564178,"PTU near INA Subway, Aurobindo Marg"
2975.0,28.5761,77.2099,Kidwai Nagar (INA Colony),PTU‐13‐008,28.5755,77.21033,78.83058051207867,"PTU near INA Subway, Aurobindo Marg"
12655.0,28.5761,77.2099,Kidwai Nagar (INA Colony),PTU‐13‐008,28.5755,77.21033,78.83058051207867,"PTU near INA Subway, Aurobindo Marg"
14806.0,28.5766,77.2134,Vikas Sadan,PTU‐13‐019,28.5764672,77.2106289,270.99788573971745,PTU at Aurobindo Marg near INA Market
1404.0,28.576682,77.213418,Vikas Sadan,PTU‐13‐019,28.5764672,77.2106289,273.39815187993287,PTU at Aurobindo Marg near INA Market
11293.0,28.576682,77.213418,Vikas Sadan,PTU‐13‐019,28.5764672,77.2106289,273.39815187993287,PTU at Aurobindo Marg near INA Market
14633.0,28.5769233333333,77.21037,Safdarjung Terminal,PTU‐13‐019,28.5764672,77.2106289,56.6712741234973,PTU at Aurobindo Marg near INA Market
15366.0,28.5770085,77.2044335,Laxmibai Nagar,PTU‐13‐018,28.57796,77.20304,172.3654285374716,"PTU at Mini Mkt. Near Barat Ghar, Laxmi Bai Nagar"
20165.0,28.5773,77.177,Moti Bagh 1,CTU‐12‐002,28.57784171,77.17756125,81.43641903560972,"CTU at Shankar Camp, Moti Bagh (No‐II)"
1054.0,28.577432,77.173731,South Moti Bagh,CTU‐12‐002,28.57784171,77.17756125,376.78072850810736,"CTU at Shankar Camp, Moti Bagh (No‐II)"
10986.0,28.577432,77.173731,South Moti Bagh,CTU‐12‐002,28.57784171,77.17756125,376.78072850810736,"CTU at Shankar Camp, Moti Bagh (No‐II)"
1813.0,28.5776,77.198917,Sarojini Nagar Market,PTU‐11‐002,28.57824,77.19911,73.61789485600947,"PTU at Ist Cross Road B‐Avenue, Sarojini Nagar"
11667.0,28.5776,77.198917,Sarojini Nagar Market,PTU‐11‐002,28.57824,77.19911,73.61789485600947,"PTU at Ist Cross Road B‐Avenue, Sarojini Nagar"
3042.0,28.57778,77.174089,South Moti Bagh,CTU‐12‐002,28.57784171,77.17756125,339.12720635403184,"CTU at Shankar Camp, Moti Bagh (No‐II)"
12706.0,28.57778,77.174089,South Moti Bagh,CTU‐12‐002,28.57784171,77.17756125,339.12720635403184,"CTU at Shankar Camp, Moti Bagh (No‐II)"
15485.0,28.5778,77.1742,South Moti Bagh,CTU‐12‐002,28.57784171,77.17756125,328.2516019641717,"CTU at Shankar Camp, Moti Bagh (No‐II)"
2958.0,28.577917,77.198967,Sarojini Nagar Market,PTU‐11‐002,28.57824,77.19911,38.53490150252788,"PTU at Ist Cross Road B‐Avenue, Sarojini Nagar"
14720.0,28.57795,77.19896,Sarojini Nagar Market,PTU‐11‐002,28.57824,77.19911,35.41718939155661,"PTU at Ist Cross Road B‐Avenue, Sarojini Nagar"
15299.0,28.57800000000001,77.175,South Moti Bagh,CTU‐12‐002,28.57784171,77.17756125,250.7188975505415,"CTU at Shankar Camp, Moti Bagh (No‐II)"
3044.0,28.578278,77.189829,M Block Sarojini Nagar,PTU‐12‐001,28.57794,77.18978,37.887228494332696,PTU near D‐Block at Africa Avenue
12708.0,28.578278,77.189829,M Block Sarojini Nagar,PTU‐12‐001,28.57794,77.18978,37.887228494332696,PTU near D‐Block at Africa Avenue
3164.0,28.578454,77.189969,M Block Sarojini Nagar,PTU‐12‐001,28.57794,77.18978,60.05999217201634,PTU near D‐Block at Africa Avenue
12802.0,28.578454,77.189969,M Block Sarojini Nagar,PTU‐12‐001,28.57794,77.18978,60.05999217201634,PTU near D‐Block at Africa Avenue
453.0,28.57875,77.229533,Sewa Nagar Flyover,PTU‐06‐003,28.5806541,77.2253861,456.9411353076381,PTU at Pandara Road Market (Left side)
10417.0,28.57875,77.229533,Sewa Nagar Flyover,PTU‐06‐003,28.5806541,77.2253861,456.9411353076381,PTU at Pandara Road Market (Left side)
2423.0,28.578783,77.2293,Sewa Nagar Flyover,PTU‐06‐003,28.5806541,77.2253861,435.1401164062749,PTU at Pandara Road Market (Left side)
12202.0,28.578783,77.2293,Sewa Nagar Flyover,PTU‐06‐003,28.5806541,77.2253861,435.1401164062749,PTU at Pandara Road Market (Left side)
2957.0,28.579256,77.208993,INA Market,PTU‐13‐016,28.57753,77.20881,192.75254045586257,"PTU opp. Shop No. 63, Laxmi Bai Mkt. Laxmi Bai Nagar"
12641.0,28.579256,77.208993,INA Market,PTU‐13‐016,28.57753,77.20881,192.75254045586257,"PTU opp. Shop No. 63, Laxmi Bai Mkt. Laxmi Bai Nagar"
15825.0,28.5793965038494,77.1922704048526,I Block Sarojini Nagar,PTU‐04‐016,28.57958,77.19084,141.15619533207703,PTU in Talkatora garden near park lane
21180.0,28.579433,77.2082,INA Market,PTU‐13‐017,28.57958,77.20707,111.54444243673,"PTU in Park behind NDMC Service Centre , Laxmi Bai Nagar"
14632.0,28.579433,77.2082,INA Market,PTU‐13‐017,28.57958,77.20707,111.54444243673,"PTU in Park behind NDMC Service Centre , Laxmi Bai Nagar"
14631.0,28.57955,77.19228000000003,I Block S N,PTU‐04‐016,28.57958,77.19084,140.65013631381376,PTU in Talkatora garden near park lane
4965.0,28.57957,77.192204,I Block Sarojini Nagar,PTU‐04‐016,28.57958,77.19084,133.19408737923766,PTU in Talkatora garden near park lane
13907.0,28.57957,77.192204,I Block Sarojini Nagar,PTU‐04‐016,28.57958,77.19084,133.19408737923766,PTU in Talkatora garden near park lane
5077.0,28.579615,77.193137,I Block Sarojini Nagar,PTU‐11‐013,28.5781,77.19461,221.5108532523532,"PTU at 1st Cross Road near Babu Mkt., Sarojini Nagar"
13961.0,28.579615,77.193137,I Block Sarojini Nagar,PTU‐11‐013,28.5781,77.19461,221.5108532523532,"PTU at 1st Cross Road near Babu Mkt., Sarojini Nagar"
4209.0,28.579661,77.204876,Laxmi Bai Nagar,PTU‐13‐014,28.57995,77.2039,100.5745831611129,"PTU at Sanjay Park, BHS Marg"
13535.0,28.579661,77.204876,Laxmi Bai Nagar,PTU‐13‐014,28.57995,77.2039,100.5745831611129,"PTU at Sanjay Park, BHS Marg"
5076.0,28.579682,77.197229,Sarojini Nagar Market (B H Singh Marg),PTU‐11‐012,28.57814,77.19713,171.7348737889647,"PTU near Shop No. 101, Sarojini Nagar Market"
13960.0,28.579682,77.197229,Sarojini Nagar Market (B H Singh Marg),PTU‐11‐012,28.57814,77.19713,171.7348737889647,"PTU near Shop No. 101, Sarojini Nagar Market"
4210.0,28.579703,77.199673,Enquiry Office Pilanji Village,PTU‐11‐001,28.57963,77.19967,8.12251377441197,"PTU near A‐Block,  Pilanji Village"
13536.0,28.579703,77.199673,Enquiry Office Pilanji Village,PTU‐11‐001,28.57963,77.19967,8.12251377441197,"PTU near A‐Block,  Pilanji Village"
14739.0,28.5797324124724,77.2135937120765,SAFDAR JANG TERM.,CTU‐09‐004,28.5804,77.21235,142.3337496254634,CTU at Safdarjung JJCamp near NDMC Store
14713.0,28.57973689,77.21449234,Sri Niwas Puri,CTU‐09‐004,28.5804,77.21235,221.80488124906807,CTU at Safdarjung JJCamp near NDMC Store
1403.0,28.579738,77.212809,Safdurjung Terminal,CTU‐09‐004,28.5804,77.21235,86.18215877664352,CTU at Safdarjung JJCamp near NDMC Store
11292.0,28.579738,77.212809,Safdurjung Terminal,CTU‐09‐004,28.5804,77.21235,86.18215877664352,CTU at Safdarjung JJCamp near NDMC Store
4744.0,28.57975,77.212833,Safdarjung Terminal,CTU‐09‐004,28.5804,77.21235,86.3033075714933,CTU at Safdarjung JJCamp near NDMC Store
13815.0,28.57975,77.212833,Safdarjung Terminal,CTU‐09‐004,28.5804,77.21235,86.3033075714933,CTU at Safdarjung JJCamp near NDMC Store
4966.0,28.579769,77.19691,Sarojini Nagar Market (B H Singh Marg),PTU‐11‐012,28.57814,77.19713,182.4059579910474,"PTU near Shop No. 101, Sarojini Nagar Market"
13908.0,28.579769,77.19691,Sarojini Nagar Market (B H Singh Marg),PTU‐11‐012,28.57814,77.19713,182.4059579910474,"PTU near Shop No. 101, Sarojini Nagar Market"
1815.0,28.579815,77.20449,Laxmi Bai Nagar,PTU‐13‐014,28.57995,77.2039,59.53468458657426,"PTU at Sanjay Park, BHS Marg"
11669.0,28.579815,77.20449,Laxmi Bai Nagar,PTU‐13‐014,28.57995,77.2039,59.53468458657426,"PTU at Sanjay Park, BHS Marg"
1814.0,28.579866,77.199505,Enquiry Office Pilanji Village,PTU‐11‐001,28.57963,77.19967,30.79328433175729,"PTU near A‐Block,  Pilanji Village"
11668.0,28.579866,77.199505,Enquiry Office Pilanji Village,PTU‐11‐001,28.57963,77.19967,30.79328433175729,"PTU near A‐Block,  Pilanji Village"
20029.0,28.5799,77.2245,Sewa Nagar Railway Bandh,PTU‐06‐003,28.5806541,77.2253861,120.48871785941608,PTU at Pandara Road Market (Left side)
4177.0,28.579947,77.178544,Moti Bagh 1,PTU(Petrol Pump 13),28.5806352,77.1793785,111.78468804993334,C‐I/99  Shantipath  Moti Bagh 1  Block E  Moti Bagh  New Delhi  Delhi 110021  India
13510.0,28.579947,77.178544,Moti Bagh 1,PTU(Petrol Pump 13),28.5806352,77.1793785,111.78468804993334,C‐I/99  Shantipath  Moti Bagh 1  Block E  Moti Bagh  New Delhi  Delhi 110021  India
332.0,28.580036,77.225132,Kushak Nallah Depot,PTU‐06‐003,28.5806541,77.2253861,73.0710431370088,PTU at Pandara Road Market (Left side)
449.0,28.580073,77.224903,Kushak Nallah Depot,PTU‐06‐003,28.5806541,77.2253861,80.00246507763373,PTU at Pandara Road Market (Left side)
21299.0,28.5804,77.1802,Moti Bagh 1,PTU(Petrol Pump 14),28.5807408,77.1795837,71.1163560393977,C‐I/99  Shantipath  Moti Bagh 1  Block E  Moti Bagh  New Delhi  Delhi 110021  India
14726.0,28.5804,77.1802,Moti Bagh 1,PTU(Petrol Pump 14),28.5807408,77.1795837,71.1163560393977,C‐I/99  Shantipath  Moti Bagh 1  Block E  Moti Bagh  New Delhi  Delhi 110021  India
14788.0,28.581000765,77.19566834,chankiya bhawan,PTU‐11‐014,28.5783299,77.1952797,299.4014101376343,"PTU near Babu Market, Sarojini Nagar"
4178.0,28.5812,77.1815,Moti Bagh 1,PTU(Petrol Pump 14),28.5807408,77.1795837,193.95864782884996,C‐I/99  Shantipath  Moti Bagh 1  Block E  Moti Bagh  New Delhi  Delhi 110021  India
14629.0,28.5815772693604,77.1741737890989,MOTI BAGH,PTU‐12‐014,28.58387,77.17587,304.01578414585697,"PTU near Sr. High Sec. School, Moti Bagh"
15298.0,28.581732073280826,77.17435508966447,Moti Bagh,PTU‐12‐014,28.58387,77.17587,279.990145634675,"PTU near Sr. High Sec. School, Moti Bagh"
14111.0,28.5818,77.2269165,NHW8 Crossing,PTU‐06‐003,28.5806541,77.2253861,196.38320264055636,PTU at Pandara Road Market (Left side)
15481.0,28.5819233,77.1742562,South Moti Bagh (Ring Road),PTU‐12‐014,28.58387,77.17587,267.7436329890312,"PTU near Sr. High Sec. School, Moti Bagh"
1053.0,28.581943,77.174262,South Moti Bagh (Ring Road),PTU‐12‐014,28.58387,77.17587,265.6406303036003,"PTU near Sr. High Sec. School, Moti Bagh"
10985.0,28.581943,77.174262,South Moti Bagh (Ring Road),PTU‐12‐014,28.58387,77.17587,265.6406303036003,"PTU near Sr. High Sec. School, Moti Bagh"
15358.0,28.58195,77.174283,Rao Tula Ram Marg,PTU‐12‐014,28.58387,77.17587,263.80350354151125,"PTU near Sr. High Sec. School, Moti Bagh"
1718.0,28.581951,77.173971,South Moti Bagh (Ring Road),PTU‐12‐014,28.58387,77.17587,282.6915291435858,"PTU near Sr. High Sec. School, Moti Bagh"
11580.0,28.581951,77.173971,South Moti Bagh (Ring Road),PTU‐12‐014,28.58387,77.17587,282.6915291435858,"PTU near Sr. High Sec. School, Moti Bagh"
4256.0,28.583,77.2302,J L Nehru Stadium,PTU‐06‐003,28.5806541,77.2253861,537.5778975439838,PTU at Pandara Road Market (Left side)
13571.0,28.583,77.2302,J L Nehru Stadium,PTU‐06‐003,28.5806541,77.2253861,537.5778975439838,PTU at Pandara Road Market (Left side)
15821.0,28.5834335740934,77.1918470156276,Chankiya Bhawan,PTU‐10‐014,28.58378,77.19201,41.67869938339548,PTU at Africa Avenue Opp. Yashwant Place
3163.0,28.583514,77.192146,Chanakya Bhawan,PTU‐10‐014,28.58378,77.19201,32.42207516592049,PTU at Africa Avenue Opp. Yashwant Place
12801.0,28.583514,77.192146,Chanakya Bhawan,PTU‐10‐014,28.58378,77.19201,32.42207516592049,PTU at Africa Avenue Opp. Yashwant Place
14513.0,28.58365114516709,77.1732795238495,Moti  Bagh,PTU‐12‐015,28.58493628,77.17274811,152.0293831117292,"PTU near foot over bridge, Nanak Pura Gurudwara, towards Moti Bagh Ring Road"
20030.0,28.5838,77.2232,Lodhi Colony Market,PTU‐08‐026,28.58396,77.2226,61.22718190975839,"PTU opp. Palika CWC Flats, Lodhi Colony"
2424.0,28.583833,77.2299,J L Nehru Stadium,PTU‐06‐003,28.5806541,77.2253861,564.9872138959822,PTU at Pandara Road Market (Left side)
12203.0,28.583833,77.2299,J L Nehru Stadium,PTU‐06‐003,28.5806541,77.2253861,564.9872138959822,PTU at Pandara Road Market (Left side)
3045.0,28.58385,77.192083,Chanakya Bhawan,PTU‐10‐014,28.58378,77.19201,10.554235987498268,PTU at Africa Avenue Opp. Yashwant Place
12709.0,28.58385,77.192083,Chanakya Bhawan,PTU‐10‐014,28.58378,77.19201,10.554235987498268,PTU at Africa Avenue Opp. Yashwant Place
15822.0,28.5840695045188,77.1922171700668,Palika Club,PTU‐10‐014,28.58378,77.19201,38.0194967821801,PTU at Africa Avenue Opp. Yashwant Place
14787.0,28.58408453,77.19236968,Palika Club,PTU‐10‐014,28.58378,77.19201,48.785838197358586,PTU at Africa Avenue Opp. Yashwant Place
452.0,28.5841,77.2301,J L Nehru Stadium,PTU‐06‐003,28.5806541,77.2253861,598.8959839117355,PTU at Pandara Road Market (Left side)
10416.0,28.5841,77.2301,J L Nehru Stadium,PTU‐06‐003,28.5806541,77.2253861,598.8959839117355,PTU at Pandara Road Market (Left side)
841.0,28.584236,77.212605,SJ Airport,PTU‐09‐008,28.58426,77.21268,7.794244059867814,PTU Opp. Safdarjung Airport at Aurobindo Marg
10786.0,28.584236,77.212605,SJ Airport,PTU‐09‐008,28.58426,77.21268,7.794244059867814,PTU Opp. Safdarjung Airport at Aurobindo Marg
14750.0,28.584325,77.2272165,mehar chand market,PTU‐08‐023,28.58448,77.22341,372.0726804639735,PTU at Main Market Lodhi colony
1023.0,28.584411,77.212295,SJ Airport,PTU‐09‐008,28.58426,77.21268,41.17139984744402,PTU Opp. Safdarjung Airport at Aurobindo Marg
10956.0,28.584411,77.212295,SJ Airport,PTU‐09‐008,28.58426,77.21268,41.17139984744402,PTU Opp. Safdarjung Airport at Aurobindo Marg
3264.0,28.584489,77.223322,Lodhi Colony Market,PTU‐08‐023,28.58448,77.22341,8.650548367788383,PTU at Main Market Lodhi colony
2426.0,28.5846,77.2246,Lodhi Colony,PTU‐08‐023,28.58448,77.22341,116.9571700192298,PTU at Main Market Lodhi colony
450.0,28.5847,77.2247,Lodhi Colony,PTU‐08‐023,28.58448,77.22341,128.3111625356675,PTU at Main Market Lodhi colony
10414.0,28.5847,77.2247,Lodhi Colony,PTU‐08‐023,28.58448,77.22341,128.3111625356675,PTU at Main Market Lodhi colony
3384.0,28.5848,77.1722,Moti Bagh Gurudawara Nanakpura,PTU‐12‐015,28.58493628,77.17274811,55.622191385712384,"PTU near foot over bridge, Nanak Pura Gurudwara, towards Moti Bagh Ring Road"
12970.0,28.5848,77.1722,Moti Bagh Gurudawara Nanakpura,PTU‐12‐015,28.58493628,77.17274811,55.622191385712384,"PTU near foot over bridge, Nanak Pura Gurudwara, towards Moti Bagh Ring Road"
2425.0,28.5848,77.22815,Central School Lodhi Colony,PTU‐08‐023,28.58448,77.22341,464.1865967040179,PTU at Main Market Lodhi colony
12204.0,28.5848,77.22815,Central School Lodhi Colony,PTU‐08‐023,28.58448,77.22341,464.1865967040179,PTU at Main Market Lodhi colony
331.0,28.584817,77.224533,Lodhi Colony,PTU‐08‐023,28.58448,77.22341,115.8776753912522,PTU at Main Market Lodhi colony
10307.0,28.584817,77.224533,Lodhi Colony,PTU‐08‐023,28.58448,77.22341,115.8776753912522,PTU at Main Market Lodhi colony
4345.0,28.584823,77.224524,Lodhi Colony,PTU‐08‐023,28.58448,77.22341,115.2655025363621,PTU at Main Market Lodhi colony
13615.0,28.584823,77.224524,Lodhi Colony,PTU‐08‐023,28.58448,77.22341,115.2655025363621,PTU at Main Market Lodhi colony
1502.0,28.584867,77.224367,Lodhi Colony,PTU‐08‐023,28.58448,77.22341,102.87549180920143,PTU at Main Market Lodhi colony
11389.0,28.584867,77.224367,Lodhi Colony,PTU‐08‐023,28.58448,77.22341,102.87549180920143,PTU at Main Market Lodhi colony
1719.0,28.584933,77.172167,Moti Bagh Gurudawara Nanakpura,PTU‐12‐015,28.58493628,77.17274811,56.74147604165125,"PTU near foot over bridge, Nanak Pura Gurudwara, towards Moti Bagh Ring Road"
11581.0,28.584933,77.172167,Moti Bagh Gurudawara Nanakpura,PTU‐12‐015,28.58493628,77.17274811,56.74147604165125,"PTU near foot over bridge, Nanak Pura Gurudwara, towards Moti Bagh Ring Road"
15285.0,28.584933000000003,77.172167,Moti Bagh Gurudawara Nanakpura,PTU‐12‐015,28.58493628,77.17274811,56.74147604164899,"PTU near foot over bridge, Nanak Pura Gurudwara, towards Moti Bagh Ring Road"
451.0,28.584967,77.228233,Central School Lodhi Road,PTU‐08‐023,28.58448,77.22341,474.0279277888169,PTU at Main Market Lodhi colony
10415.0,28.584967,77.228233,Central School Lodhi Road,PTU‐08‐023,28.58448,77.22341,474.0279277888169,PTU at Main Market Lodhi colony
1052.0,28.5851033,77.1724418,Gurudwara Moti Bagh,PTU‐12‐015,28.58493628,77.17274811,35.20549954554565,"PTU near foot over bridge, Nanak Pura Gurudwara, towards Moti Bagh Ring Road"
10984.0,28.5851033,77.1724418,Gurudwara Moti Bagh,PTU‐12‐015,28.58493628,77.17274811,35.20549954554565,"PTU near foot over bridge, Nanak Pura Gurudwara, towards Moti Bagh Ring Road"
3265.0,28.585683,77.2168,Jor Bagh,PTU‐08‐016,28.5857,77.21683,3.4862005119676787,PTU at Corner of Tajdar Babar Mkt.(Lodhi colony)
12872.0,28.585683,77.2168,Jor Bagh,PTU‐08‐016,28.5857,77.21683,3.4862005119676787,PTU at Corner of Tajdar Babar Mkt.(Lodhi colony)
2956.0,28.585933,77.221367,Lodhi Colony,PTU‐08‐026,28.58396,77.2226,250.24999920047884,"PTU opp. Palika CWC Flats, Lodhi Colony"
4133.0,28.586,77.1911,Akbar Bhawan,PTU‐10‐008,28.58661,77.19023,108.7047154089844,PTU at Satya Marg
13491.0,28.586,77.1911,Akbar Bhawan,PTU‐10‐008,28.58661,77.19023,108.7047154089844,PTU at Satya Marg
3046.0,28.5862,77.1934,Vinay Marg,PTU‐10‐010,28.58706,77.19369,99.73170377067017,"PTU near PSOI Entry, Vinay Marg"
12710.0,28.5862,77.1934,Vinay Marg,PTU‐10‐010,28.58706,77.19369,99.73170377067017,"PTU near PSOI Entry, Vinay Marg"
14755.0,28.5862123333333,77.22062083333341,B.K. Dutt Colony,PTU‐09‐002,28.58345,77.21983,316.71489429712705,"PTU at Aliganj Market, lodhi Colony"
4180.0,28.5863,77.1908,Akbar Bhawan,PTU‐10‐008,28.58661,77.19023,65.46492599696201,PTU at Satya Marg
3162.0,28.5864,77.1937,Vinay Marg,PTU‐10‐010,28.58706,77.19369,73.39514650347563,"PTU near PSOI Entry, Vinay Marg"
12800.0,28.5864,77.1937,Vinay Marg,PTU‐10‐010,28.58706,77.19369,73.39514650347563,"PTU near PSOI Entry, Vinay Marg"
840.0,28.586708,77.212779,SJ Madrasa,PTU(Petrol Pump 01),28.5871049,77.2119663,90.79875530944634,Sri Aurobindo Marg  Safdarjung Airport Area  Jor Bagh  New Delhi  Delhi 110003  India
10785.0,28.586708,77.212779,SJ Madrasa,PTU(Petrol Pump 01),28.5871049,77.2119663,90.79875530944634,Sri Aurobindo Marg  Safdarjung Airport Area  Jor Bagh  New Delhi  Delhi 110003  India
330.0,28.586733,77.22425,Lodhi Colony 18-Block,PTU‐08‐023,28.58448,77.22341,263.60639183690387,PTU at Main Market Lodhi colony
10306.0,28.586733,77.22425,Lodhi Colony 18-Block,PTU‐08‐023,28.58448,77.22341,263.60639183690387,PTU at Main Market Lodhi colony
4179.0,28.587,77.1853,Railway Museum,PTU‐10‐015,28.5840642,77.1839826,350.87488565513746,PTU at Shanti Path near moti bagh flyover
13511.0,28.587,77.1853,Railway Museum,PTU‐10‐015,28.5840642,77.1839826,350.87488565513746,PTU at Shanti Path near moti bagh flyover
4572.0,28.587,77.2358,Jawahar Lal Nehru Stadium,PTU‐08‐004,28.59382,77.2317,857.5199779771132,"PTU  In Tikona Park Behind Bungalow No 25, Golf Link Colony"
4134.0,28.587015,77.185246,Rail Museum,PTU‐10‐015,28.5840642,77.1839826,350.5371478499236,PTU at Shanti Path near moti bagh flyover
13492.0,28.587015,77.185246,Rail Museum,PTU‐10‐015,28.5840642,77.1839826,350.5371478499236,PTU at Shanti Path near moti bagh flyover
20229.0,28.5871,77.2357,Jawahar Lal Nehru Stadium,PTU‐08‐004,28.59382,77.2317,843.1355202308963,"PTU  In Tikona Park Behind Bungalow No 25, Golf Link Colony"
3060.0,28.5873,77.2295,Pragati Vihar,PTU‐08‐008,28.5917547,77.2290424,497.3509219691183,PTU at Maharishi Raman Marg Near Bus Stop Bharti Nagar Side
12724.0,28.5873,77.2295,Pragati Vihar,PTU‐08‐008,28.5917547,77.2290424,497.3509219691183,PTU at Maharishi Raman Marg Near Bus Stop Bharti Nagar Side
1503.0,28.58745,77.22405,18-Block Lodhi Colony,PTU‐08‐023,28.58448,77.22341,336.109104809656,PTU at Main Market Lodhi colony
11390.0,28.58745,77.22405,18-Block Lodhi Colony,PTU‐08‐023,28.58448,77.22341,336.109104809656,PTU at Main Market Lodhi colony
1720.0,28.587833,77.170333,Satya Niketan,PTU(Petrol Pump 12),28.5871676,77.1716116,145.1195204205606,11/78  Mahatma Gandhi Rd  Arakpur Bagh Mochi  Moti Gaon  Moti Bagh Village  New Delhi  Delhi 110021  India
11582.0,28.587833,77.170333,Satya Niketan,PTU(Petrol Pump 12),28.5871676,77.1716116,145.1195204205606,11/78  Mahatma Gandhi Rd  Arakpur Bagh Mochi  Moti Gaon  Moti Bagh Village  New Delhi  Delhi 110021  India
14571.0,28.587833000000003,77.170333,Satya Niketan,PTU(Petrol Pump 12),28.5871676,77.1716116,145.1195204207409,11/78  Mahatma Gandhi Rd  Arakpur Bagh Mochi  Moti Gaon  Moti Bagh Village  New Delhi  Delhi 110021  India
3736.0,28.5879,77.2293,Pragati Vihar,PTU‐08‐008,28.5917547,77.2290424,429.3603748507385,PTU at Maharishi Raman Marg Near Bus Stop Bharti Nagar Side
13232.0,28.5879,77.2293,Pragati Vihar,PTU‐08‐008,28.5917547,77.2290424,429.3603748507385,PTU at Maharishi Raman Marg Near Bus Stop Bharti Nagar Side
2110.0,28.587958,77.233541,CGO Complex,PTU‐08‐008,28.5917547,77.2290424,609.222649662889,PTU at Maharishi Raman Marg Near Bus Stop Bharti Nagar Side
11916.0,28.587958,77.233541,CGO Complex,PTU‐08‐008,28.5917547,77.2290424,609.222649662889,PTU at Maharishi Raman Marg Near Bus Stop Bharti Nagar Side
3049.0,28.588083,77.233667,CGO Complex,PTU‐08‐008,28.5917547,77.2290424,608.7426420105569,PTU at Maharishi Raman Marg Near Bus Stop Bharti Nagar Side
12713.0,28.588083,77.233667,CGO Complex,PTU‐08‐008,28.5917547,77.2290424,608.7426420105569,PTU at Maharishi Raman Marg Near Bus Stop Bharti Nagar Side
14826.0,28.588123032735,77.17613122782559,Nanak Pura Comunity Centre,CTU‐10‐002,28.58812,77.17812,194.18059843569316,CTU Sanjay Camp (Ladies Toilet)
1024.0,28.588591,77.212721,S J Madrasa,PTU(Petrol Pump 01),28.5871049,77.2119663,180.93200711293224,Sri Aurobindo Marg  Safdarjung Airport Area  Jor Bagh  New Delhi  Delhi 110003  India
10957.0,28.588591,77.212721,S J Madrasa,PTU(Petrol Pump 01),28.5871049,77.2119663,180.93200711293224,Sri Aurobindo Marg  Safdarjung Airport Area  Jor Bagh  New Delhi  Delhi 110003  India
1051.0,28.588732,77.170023,Satya Niketan,PTU(Petrol Pump 12),28.5871676,77.1716116,233.06306417250389,11/78  Mahatma Gandhi Rd  Arakpur Bagh Mochi  Moti Gaon  Moti Bagh Village  New Delhi  Delhi 110021  India
10983.0,28.588732,77.170023,Satya Niketan,PTU(Petrol Pump 12),28.5871676,77.1716116,233.06306417250389,11/78  Mahatma Gandhi Rd  Arakpur Bagh Mochi  Moti Gaon  Moti Bagh Village  New Delhi  Delhi 110021  India
15896.0,28.5889495537089,77.212731136396,Lodhi Road Crossing,PTU(Petrol Pump 01),28.5871049,77.2119663,218.2872869981817,Sri Aurobindo Marg  Safdarjung Airport Area  Jor Bagh  New Delhi  Delhi 110003  India
15352.0,28.58975399,77.194680355,THE LEELA PALACE KEMPINSKI,PTU(Petrol Pump 07),28.5907657,77.1959754,169.24394586625462,D‐II 262  Vinay Marg  D1 Flats  Block D 2  Chanakyapuri  New Delhi  Delhi 110021  India
15455.0,28.589885954959183,77.21298962831499,S J Madrasa,PTU(Petrol Pump 02),28.5913267,77.2118263,196.38279757370083,21  Safdarjung Rd  Tuglak Crescent Area  Delhi Race Club  New Delhi  Delhi 110001  India
15852.0,28.5900470625311,77.2193188432354,Lodhi Road Crossing,PTU‐08‐014,28.59024,77.21971,43.80437350847504,PTU  Outside Lodhi Garden near gate No. 1 Lodhi Road
2109.0,28.590114,77.220675,Lodhi Garden / Mousam Bhawan,PTU‐08‐015,28.58984,77.21985,86.11963767746978,PTU opp. Post office (2nd Avenue) Jor Bagh
11915.0,28.590114,77.220675,Lodhi Garden / Mousam Bhawan,PTU‐08‐015,28.58984,77.21985,86.11963767746978,PTU opp. Post office (2nd Avenue) Jor Bagh
3965.0,28.5901157,77.2334405,Sunehari Pulla Depot / Jawaharlal  Nehru Stadium Terminal,PTU‐08‐004,28.59382,77.2317,445.5764661580875,"PTU  In Tikona Park Behind Bungalow No 25, Golf Link Colony"
13368.0,28.5901157,77.2334405,Sunehari Pulla Depot / Jawaharlal  Nehru Stadium Terminal,PTU‐08‐004,28.59382,77.2317,445.5764661580875,"PTU  In Tikona Park Behind Bungalow No 25, Golf Link Colony"
3358.0,28.590167,77.220617,Lodhi Garden,PTU‐08‐015,28.58984,77.21985,83.24782211558724,PTU opp. Post office (2nd Avenue) Jor Bagh
12947.0,28.590167,77.220617,Lodhi Garden,PTU‐08‐015,28.58984,77.21985,83.24782211558724,PTU opp. Post office (2nd Avenue) Jor Bagh
2823.0,28.590346,77.220414,Lodhi Garden / Mousam Bhawan,PTU‐08‐014,28.59024,77.21971,69.73918513937798,PTU  Outside Lodhi Garden near gate No. 1 Lodhi Road
12530.0,28.590346,77.220414,Lodhi Garden / Mousam Bhawan,PTU‐08‐014,28.59024,77.21971,69.73918513937798,PTU  Outside Lodhi Garden near gate No. 1 Lodhi Road
14468.0,28.590346000000004,77.220414,Lodhi Garden / Mousam Bhawan,PTU‐08‐014,28.59024,77.21971,69.73918513943775,PTU  Outside Lodhi Garden near gate No. 1 Lodhi Road
15059.0,28.59036169629617,77.22364872694017,Lodhi Road Crossing,PTU‐08‐009,28.59131,77.22247,156.08889461225994,PTU in parking of India International Annexe and Islamic Culture center Max Mueller Marg
14655.0,28.59046,77.22383,Lodhi Road Crossing,PTU‐08‐009,28.59131,77.22247,162.98760503548317,PTU in parking of India International Annexe and Islamic Culture center Max Mueller Marg
14763.0,28.5905083333333,77.18731,German Ambessy,PTU‐10‐007,28.5891,77.19035,335.593404396267,"PTU in Nehru Park , Niti Marg Side"
4247.0,28.590556,77.2247601,Lodhi Estate / Air Force School,PTU‐08‐009,28.59131,77.22247,238.7974833875892,PTU in parking of India International Annexe and Islamic Culture center Max Mueller Marg
1504.0,28.590764,77.224799,Lodhi Estate / Air Force School,PTU‐08‐009,28.59131,77.22247,235.3586505801349,PTU in parking of India International Annexe and Islamic Culture center Max Mueller Marg
1571.0,28.591283,77.2333,Sunehari Pulla Depot / Jawahar Lal Nehru Stadium Terminal,PTU‐08‐004,28.59382,77.2317,322.4659626329926,"PTU  In Tikona Park Behind Bungalow No 25, Golf Link Colony"
11451.0,28.591283,77.2333,Sunehari Pulla Depot / Jawahar Lal Nehru Stadium Terminal,PTU‐08‐004,28.59382,77.2317,322.4659626329926,"PTU  In Tikona Park Behind Bungalow No 25, Golf Link Colony"
3326.0,28.591317,77.239667,Lodhi Hotel,PTU‐08‐004,28.59382,77.2317,826.1447794070276,"PTU  In Tikona Park Behind Bungalow No 25, Golf Link Colony"
12921.0,28.591317,77.239667,Lodhi Hotel,PTU‐08‐004,28.59382,77.2317,826.1447794070276,"PTU  In Tikona Park Behind Bungalow No 25, Golf Link Colony"
2111.0,28.59155,77.233117,Sunehari Pulla Depot / Jawahar Lal Nehru Stadium Terminal,PTU‐08‐004,28.59382,77.2317,287.8403679261768,"PTU  In Tikona Park Behind Bungalow No 25, Golf Link Colony"
11917.0,28.59155,77.233117,Sunehari Pulla Depot / Jawahar Lal Nehru Stadium Terminal,PTU‐08‐004,28.59382,77.2317,287.8403679261768,"PTU  In Tikona Park Behind Bungalow No 25, Golf Link Colony"
14550.0,28.59163255,77.22356228,Loni Road Xing,PTU‐08‐009,28.59131,77.22247,112.5144859172863,PTU in parking of India International Annexe and Islamic Culture center Max Mueller Marg
3323.0,28.591683,77.2235,Lodhi Colony,PTU‐08‐009,28.59131,77.22247,108.7814038076564,PTU in parking of India International Annexe and Islamic Culture center Max Mueller Marg
12918.0,28.591683,77.2235,Lodhi Colony,PTU‐08‐009,28.59131,77.22247,108.7814038076564,PTU in parking of India International Annexe and Islamic Culture center Max Mueller Marg
15926.0,28.5917145003597,77.2401048596547,Lodhi Hotel/Shiv Mandir,PTU‐08‐004,28.59382,77.2317,853.3443949614044,"PTU  In Tikona Park Behind Bungalow No 25, Golf Link Colony"
329.0,28.591833,77.232383,JLN Stadium (Sunehripulla Depot),PTU‐08‐004,28.59382,77.2317,230.78809185845728,"PTU  In Tikona Park Behind Bungalow No 25, Golf Link Colony"
10305.0,28.591833,77.232383,JLN Stadium (Sunehripulla Depot),PTU‐08‐004,28.59382,77.2317,230.78809185845728,"PTU  In Tikona Park Behind Bungalow No 25, Golf Link Colony"
20010.0,28.5919,77.2402,Lodhi Hotel,PTU‐08‐004,28.59382,77.2317,856.9095206768633,"PTU  In Tikona Park Behind Bungalow No 25, Golf Link Colony"
13990.0,28.5919,77.2402,Lodhi Hotel,PTU‐08‐004,28.59382,77.2317,856.9095206768633,"PTU  In Tikona Park Behind Bungalow No 25, Golf Link Colony"
3093.0,28.592,77.2237,Lodhi Road Crossing,PTU‐08‐009,28.59131,77.22247,142.5079306429947,PTU in parking of India International Annexe and Islamic Culture center Max Mueller Marg
12754.0,28.592,77.2237,Lodhi Road Crossing,PTU‐08‐009,28.59131,77.22247,142.5079306429947,PTU in parking of India International Annexe and Islamic Culture center Max Mueller Marg
1505.0,28.592094,77.232747,JLN Stadium / Sunehri Pulla Depot,PTU‐08‐004,28.59382,77.2317,217.44811054838405,"PTU  In Tikona Park Behind Bungalow No 25, Golf Link Colony"
11391.0,28.592094,77.232747,JLN Stadium / Sunehri Pulla Depot,PTU‐08‐004,28.59382,77.2317,217.44811054838405,"PTU  In Tikona Park Behind Bungalow No 25, Golf Link Colony"
2822.0,28.592183,77.228983,Dayal Singh College,PTU‐08‐008,28.5917547,77.2290424,47.97660437326637,PTU at Maharishi Raman Marg Near Bus Stop Bharti Nagar Side
12529.0,28.592183,77.228983,Dayal Singh College,PTU‐08‐008,28.5917547,77.2290424,47.97660437326637,PTU at Maharishi Raman Marg Near Bus Stop Bharti Nagar Side
4633.0,28.5924,77.229,Dayal Singh College,PTU‐08‐008,28.5917547,77.2290424,71.87340300666055,PTU at Maharishi Raman Marg Near Bus Stop Bharti Nagar Side
328.0,28.5924,77.23675,Ishpat Bhawan,PTU‐08‐004,28.59382,77.2317,517.7157979193458,"PTU  In Tikona Park Behind Bungalow No 25, Golf Link Colony"
10304.0,28.5924,77.23675,Ishpat Bhawan,PTU‐08‐004,28.59382,77.2317,517.7157979193458,"PTU  In Tikona Park Behind Bungalow No 25, Golf Link Colony"
3586.0,28.592467,77.228717,Dayal Singh College,PTU‐08‐008,28.5917547,77.2290424,85.33843373316537,PTU at Maharishi Raman Marg Near Bus Stop Bharti Nagar Side
13111.0,28.592467,77.228717,Dayal Singh College,PTU‐08‐008,28.5917547,77.2290424,85.33843373316537,PTU at Maharishi Raman Marg Near Bus Stop Bharti Nagar Side
1506.0,28.592517,77.2365,Ishpat Bhawan,PTU‐08‐004,28.59382,77.2317,490.5271466296716,"PTU  In Tikona Park Behind Bungalow No 25, Golf Link Colony"
11392.0,28.592517,77.2365,Ishpat Bhawan,PTU‐08‐004,28.59382,77.2317,490.5271466296716,"PTU  In Tikona Park Behind Bungalow No 25, Golf Link Colony"
4018.0,28.593133,77.241917,DPS / Police Station Nizamuddin (Lodhi Road),PTU‐08‐001,28.60152,77.23835,995.4909969862098,PTU opp. Kaka Nagar Mkt. Dr. Zakir Hussain Marg
13408.0,28.593133,77.241917,DPS / Police Station Nizamuddin (Lodhi Road),PTU‐08‐001,28.60152,77.23835,995.4909969862098,PTU opp. Kaka Nagar Mkt. Dr. Zakir Hussain Marg
1025.0,28.593162,77.21433,Prithvi Raj Road,PTU(Petrol Pump 02),28.5913267,77.2118263,318.43611574894175,21  Safdarjung Rd  Tuglak Crescent Area  Delhi Race Club  New Delhi  Delhi 110001  India
10958.0,28.593162,77.21433,Prithvi Raj Road,PTU(Petrol Pump 02),28.5913267,77.2118263,318.43611574894175,21  Safdarjung Rd  Tuglak Crescent Area  Delhi Race Club  New Delhi  Delhi 110001  India
4257.0,28.59347,77.214639,Prithvi Raj Road,PTU‐08‐011,28.59286,77.21793,328.3934823537423,PTU   near gate No. 4 Inside Lodhi Garden
13572.0,28.59347,77.214639,Prithvi Raj Road,PTU‐08‐011,28.59286,77.21793,328.3934823537423,PTU   near gate No. 4 Inside Lodhi Garden
3161.0,28.5941,77.1962,Ashoka Hotel,PTU‐10‐012,28.59479,77.19596,80.22279648159373,"PTU in Nehru Park , Vinay Marg Side."
12799.0,28.5941,77.1962,Ashoka Hotel,PTU‐10‐012,28.59479,77.19596,80.22279648159373,"PTU in Nehru Park , Vinay Marg Side."
2391.0,28.5942,77.212,Tughlaq Crescent,PTU(Petrol Pump 02),28.5913267,77.2118263,319.94616263207706,21  Safdarjung Rd  Tuglak Crescent Area  Delhi Race Club  New Delhi  Delhi 110001  India
12171.0,28.5942,77.212,Tughlaq Crescent,PTU(Petrol Pump 02),28.5913267,77.2118263,319.94616263207706,21  Safdarjung Rd  Tuglak Crescent Area  Delhi Race Club  New Delhi  Delhi 110001  India
3047.0,28.5944,77.196,Ashoka Hotel,PTU‐10‐012,28.59479,77.19596,43.54151017831252,"PTU in Nehru Park , Vinay Marg Side."
12711.0,28.5944,77.196,Ashoka Hotel,PTU‐10‐012,28.59479,77.19596,43.54151017831252,"PTU in Nehru Park , Vinay Marg Side."
839.0,28.5949,77.212,Tughlaq Crescent,CTU‐07‐001,28.59741,77.21228,280.4348259364824,CTU at Tughlak Lane  J.J. Cluster
10784.0,28.5949,77.212,Tughlaq Crescent,CTU‐07‐001,28.59741,77.21228,280.4348259364824,CTU at Tughlak Lane  J.J. Cluster
15460.0,28.59525,77.19955,HOTEL SAMRAT ASHOK,CTU‐09‐002,28.59311,77.20027,248.12307682768204,CTU at B.R. Camp Race Course Road No.2
15084.0,28.5955,77.19965,HOTEL SAMRAT ASHOK,PTU‐09‐010,28.59605164,77.20179241,217.9746822052466,PTU at Media Park Mustafa Kemal Attaturk Marg
3092.0,28.5955,77.2235,Max Mueller Marg,PTU‐08‐010,28.59699,77.22165,245.09684269336293,PTU   near gate No. 3 Inside Lodhi Garden
12753.0,28.5955,77.2235,Max Mueller Marg,PTU‐08‐010,28.59699,77.22165,245.09684269336293,PTU   near gate No. 3 Inside Lodhi Garden
3324.0,28.596,77.2233,Max Mueller Marg,PTU‐08‐010,28.59699,77.22165,195.1111458887692,PTU   near gate No. 3 Inside Lodhi Garden
12919.0,28.596,77.2233,Max Mueller Marg,PTU‐08‐010,28.59699,77.22165,195.1111458887692,PTU   near gate No. 3 Inside Lodhi Garden
344.0,28.596267,77.240433,Amir Khusro Park / Oberoi Hotel,PTU‐08‐001,28.60152,77.23835,618.4950278866194,PTU opp. Kaka Nagar Mkt. Dr. Zakir Hussain Marg
10318.0,28.596267,77.240433,Amir Khusro Park / Oberoi Hotel,PTU‐08‐001,28.60152,77.23835,618.4950278866194,PTU opp. Kaka Nagar Mkt. Dr. Zakir Hussain Marg
20355.0,28.5963,77.1702,Taj Palace,PTU‐10‐018,28.59578,77.16854,172.07304973707497,PTU near Dhaula Kuan at S P marg
15927.0,28.5963681134774,77.2055959582684,Delhi Gymkhana Club,PTU(Petrol Pump 03),28.5961215,77.2052087,46.70592793107388,Mustafa Kemal Attaturk Rd  Safdarjang's Tomb  Delhi Race Club  New Delhi  Delhi 110011  India
20100.0,28.5964,77.1701,Taj Palace,PTU‐10‐018,28.59578,77.16854,167.1807546422235,PTU near Dhaula Kuan at S P marg
3160.0,28.5964,77.2029,Race Course,PTU‐09‐011,28.59627527,77.20290762,13.889281329634892,"PTU at Media Park,  Mustafa Kemal Attaturk Marg (DUAC Design )"
12798.0,28.5964,77.2029,Race Course,PTU‐09‐011,28.59627527,77.20290762,13.889281329634892,"PTU at Media Park,  Mustafa Kemal Attaturk Marg (DUAC Design )"
2209.0,28.5965,77.2407,Amir Khusro Park / Oberoi Hotel,PTU‐08‐001,28.60152,77.23835,603.5080647613341,PTU opp. Kaka Nagar Mkt. Dr. Zakir Hussain Marg
12003.0,28.5965,77.2407,Amir Khusro Park / Oberoi Hotel,PTU‐08‐001,28.60152,77.23835,603.5080647613341,PTU opp. Kaka Nagar Mkt. Dr. Zakir Hussain Marg
15823.0,28.5965329644146,77.2054458729042,Delhi Gymkhana Club,PTU(Petrol Pump 03),28.5961215,77.2052087,51.278502095890246,Mustafa Kemal Attaturk Rd  Safdarjang's Tomb  Delhi Race Club  New Delhi  Delhi 110011  India
3382.0,28.596544,77.217605,Prithvi Raj Road Crossing,PTU‐08‐013,28.595688,77.2193201,192.608852228387,PTU   near gate No. 7 Inside Lodhi Garden
12968.0,28.596544,77.217605,Prithvi Raj Road Crossing,PTU‐08‐013,28.595688,77.2193201,192.608852228387,PTU   near gate No. 7 Inside Lodhi Garden
14749.0,28.59659323797388,77.22338587045671,lodhi estate,PTU‐08‐010,28.59699,77.22165,175.12177805500994,PTU   near gate No. 3 Inside Lodhi Garden
3048.0,28.5966,77.2033,Race Course,PTU‐09‐011,28.59627527,77.20290762,52.64347722082066,"PTU at Media Park,  Mustafa Kemal Attaturk Marg (DUAC Design )"
12712.0,28.5966,77.2033,Race Course,PTU‐09‐011,28.59627527,77.20290762,52.64347722082066,"PTU at Media Park,  Mustafa Kemal Attaturk Marg (DUAC Design )"
2821.0,28.596683,77.228717,Bharti Nagar,PTU‐08‐007,28.59492,77.23016,241.4084480650368,PTU at Bharti Nagar
12528.0,28.596683,77.228717,Bharti Nagar,PTU‐08‐007,28.59492,77.23016,241.4084480650368,PTU at Bharti Nagar
15062.0,28.59676655186217,77.21768081188202,Prithvi Raj Road Crossing,PTU‐08‐013,28.595688,77.2193201,199.99366669652568,PTU   near gate No. 7 Inside Lodhi Garden
883.0,28.597,77.1713,Officer Enclave S.P Marg,PTU‐10‐018,28.59578,77.16854,301.68193169622543,PTU near Dhaula Kuan at S P marg
10827.0,28.597,77.1713,Officer Enclave S.P Marg,PTU‐10‐018,28.59578,77.16854,301.68193169622543,PTU near Dhaula Kuan at S P marg
15384.0,28.597006666666694,77.17108499999998,Taj Hotel,PTU‐10‐018,28.59578,77.16854,283.44664530885035,PTU near Dhaula Kuan at S P marg
14877.0,28.597135,77.1716066666667,Sardar Patel Marg,PTU‐10‐018,28.59578,77.16854,335.17420066239004,PTU near Dhaula Kuan at S P marg
1549.0,28.5972,77.1714,Officer Enclave S.P Marg,PTU‐10‐018,28.59578,77.16854,320.7756713626358,PTU near Dhaula Kuan at S P marg
11432.0,28.5972,77.1714,Officer Enclave S.P Marg,PTU‐10‐018,28.59578,77.16854,320.7756713626358,PTU near Dhaula Kuan at S P marg
1026.0,28.597353,77.21819,Prithvi Raj Road Crossing,PTU‐08‐012,28.5959613,77.2195845,206.11444049760652,PTU   near gate No. 5 Inside Lodhi Garden
10959.0,28.597353,77.21819,Prithvi Raj Road Crossing,PTU‐08‐012,28.5959613,77.2195845,206.11444049760652,PTU   near gate No. 5 Inside Lodhi Garden
3091.0,28.59745,77.220083,Prithviraj Road Crossing,PTU‐08‐012,28.5959613,77.2195845,172.54209170248654,PTU   near gate No. 5 Inside Lodhi Garden
12752.0,28.59745,77.220083,Prithviraj Road Crossing,PTU‐08‐012,28.5959613,77.2195845,172.54209170248654,PTU   near gate No. 5 Inside Lodhi Garden
20334.0,28.5977,77.1727,ITC Maurya,PTU‐10‐018,28.59578,77.16854,458.83667837790006,PTU near Dhaula Kuan at S P marg
20101.0,28.5978,77.1725,ITC Maurya,PTU‐10‐018,28.59578,77.16854,447.1275646722928,PTU near Dhaula Kuan at S P marg
3587.0,28.5978,77.228467,Bharti Nagar,PTU‐08‐006,28.59979,77.22872,222.6521945258453,PTU  near Gurudwara at Maharishi Raman Marg
13112.0,28.5978,77.228467,Bharti Nagar,PTU‐08‐006,28.59979,77.22872,222.6521945258453,PTU  near Gurudwara at Maharishi Raman Marg
3325.0,28.597807,77.219434,Prithviraj Road Crossing,PTU‐08‐012,28.5959613,77.2195845,205.7577784810293,PTU   near gate No. 5 Inside Lodhi Garden
12920.0,28.597807,77.219434,Prithviraj Road Crossing,PTU‐08‐012,28.5959613,77.2195845,205.7577784810293,PTU   near gate No. 5 Inside Lodhi Garden
14786.0,28.598158500000004,77.20710849999998,DELHI GYMKHANA CLUB,PTU‐05‐002,28.59948,77.20587,190.29569319740327,PTU at Tolstoy Marg‐ Barakhamba Road Crossing
15085.0,28.59823350000001,77.2072835,DELHI GYMKHANA CLUB,PTU‐05‐002,28.59948,77.20587,195.5876904490005,PTU at Tolstoy Marg‐ Barakhamba Road Crossing
14762.0,28.598283333333303,77.19120833333331,USSR Embassy,PTU‐10‐006,28.59512,77.19349,416.3503681517132,PTU at  Niti Marg (Sulabh Sauchalay).
3501.0,28.598467,77.225,Ravindra Nagar,PTU‐06‐014,28.59943324,77.22625609,163.03877851113748,PTU adjoining Garbage Station Khan Market (Urinal Block)
13060.0,28.598467,77.225,Ravindra Nagar,PTU‐06‐014,28.59943324,77.22625609,163.03877851113748,PTU adjoining Garbage Station Khan Market (Urinal Block)
2458.0,28.598468,77.191353,British High Comission,PTU‐10‐006,28.59512,77.19349,426.7572544328444,PTU at  Niti Marg (Sulabh Sauchalay).
12226.0,28.598468,77.191353,British High Comission,PTU‐10‐006,28.59512,77.19349,426.7572544328444,PTU at  Niti Marg (Sulabh Sauchalay).
1786.0,28.598679,77.240793,Delhi Public School,PTU‐08‐001,28.60152,77.23835,395.8277248475083,PTU opp. Kaka Nagar Mkt. Dr. Zakir Hussain Marg
11641.0,28.598679,77.240793,Delhi Public School,PTU‐08‐001,28.60152,77.23835,395.8277248475083,PTU opp. Kaka Nagar Mkt. Dr. Zakir Hussain Marg
20396.0,28.5987,77.2113,Prithviraj Road,CTU‐07‐001,28.59741,77.21228,172.42227119271263,CTU at Tughlak Lane  J.J. Cluster
345.0,28.598783,77.2406,Delhi Public School,PTU‐08‐001,28.60152,77.23835,375.3319919562196,PTU opp. Kaka Nagar Mkt. Dr. Zakir Hussain Marg
10319.0,28.598783,77.2406,Delhi Public School,PTU‐08‐001,28.60152,77.23835,375.3319919562196,PTU opp. Kaka Nagar Mkt. Dr. Zakir Hussain Marg
1550.0,28.5992,77.1753,Bapu Dham,PTU‐10‐016,28.5955265,77.1777527,473.4879320343687,PTU at San Martin Marg adjoining Manas Marg
11433.0,28.5992,77.1753,Bapu Dham,PTU‐10‐016,28.5955265,77.1777527,473.4879320343687,PTU at San Martin Marg adjoining Manas Marg
4854.0,28.5992,77.2284,Sujan Singh Park,PTU‐08‐006,28.59979,77.22872,72.66366990417238,PTU  near Gurudwara at Maharishi Raman Marg
3588.0,28.599217,77.2284,Sujan Singh Park,PTU‐08‐006,28.59979,77.22872,70.9616372359599,PTU  near Gurudwara at Maharishi Raman Marg
13113.0,28.599217,77.2284,Sujan Singh Park,PTU‐08‐006,28.59979,77.22872,70.9616372359599,PTU  near Gurudwara at Maharishi Raman Marg
2820.0,28.599233,77.228567,Sujan Singh Park,PTU‐08‐006,28.59979,77.22872,63.7113057500562,PTU  near Gurudwara at Maharishi Raman Marg
882.0,28.5994,77.1758,Bapu Dham,PTU‐10‐016,28.5955265,77.1777527,471.0183439674656,PTU at San Martin Marg adjoining Manas Marg
10826.0,28.5994,77.1758,Bapu Dham,PTU‐10‐016,28.5955265,77.1777527,471.0183439674656,PTU at San Martin Marg adjoining Manas Marg
2459.0,28.59955,77.184967,Sikkim House,CTU‐10‐003,28.59684,77.18303,355.7615611544951,CTU (Sulabh Sauchalay) Sanjay Camp towards Singapore Embassy
12227.0,28.59955,77.184967,Sikkim House,CTU‐10‐003,28.59684,77.18303,355.7615611544951,CTU (Sulabh Sauchalay) Sanjay Camp towards Singapore Embassy
3151.0,28.599755,77.211328,Police Station Tughlaq Road,PTU‐07‐017,28.6012,77.21292,223.5463099485504,PTU at Tees January Lane behind Gandhi Samriti No.‐I
12793.0,28.599755,77.211328,Police Station Tughlaq Road,PTU‐07‐017,28.6012,77.21292,223.5463099485504,PTU at Tees January Lane behind Gandhi Samriti No.‐I
2789.0,28.599867,77.211267,PS Tuglak Road,PTU‐07‐017,28.6012,77.21292,219.11767390880152,PTU at Tees January Lane behind Gandhi Samriti No.‐I
12504.0,28.599867,77.211267,PS Tuglak Road,PTU‐07‐017,28.6012,77.21292,219.11767390880152,PTU at Tees January Lane behind Gandhi Samriti No.‐I
2392.0,28.599883,77.2112,PS Tughlaq Road,PTU‐07‐015,28.60126,77.2096,218.7318690522044,"PTU near 33 Qtrs, Akbar Lane."
12172.0,28.599883,77.2112,PS Tughlaq Road,PTU‐07‐015,28.60126,77.2096,218.7318690522044,"PTU near 33 Qtrs, Akbar Lane."
838.0,28.599917,77.211317,PS Tuglak Road,PTU‐07‐017,28.6012,77.21292,211.76318673010672,PTU at Tees January Lane behind Gandhi Samriti No.‐I
10783.0,28.599917,77.211317,PS Tuglak Road,PTU‐07‐017,28.6012,77.21292,211.76318673010672,PTU at Tees January Lane behind Gandhi Samriti No.‐I
15454.0,28.600675,77.24086,D P S School,PTU‐08‐001,28.60152,77.23835,262.4384371946198,PTU opp. Kaka Nagar Mkt. Dr. Zakir Hussain Marg
1551.0,28.600683,77.17805,Railway Colony (Sardar Patel Marg),PTU‐10‐017,28.60056,77.18175,361.4775339163388,PTU at San Martin Road adjoining Panchsheel marg
11434.0,28.600683,77.17805,Railway Colony (Sardar Patel Marg),PTU‐10‐017,28.60056,77.18175,361.4775339163388,PTU at San Martin Road adjoining Panchsheel marg
15970.0,28.6007106718527,77.1924958639328,China Embassy,PTU‐10‐005,28.5992616,77.1954614,331.3350140536859,"PTU adjoining Ashoka Hotel Parking near Petrol Pump, Niti Marg"
881.0,28.600783,77.1785,Railway Colony (Sardar Patel Marg),PTU‐10‐017,28.60056,77.18175,318.2540108496698,PTU at San Martin Road adjoining Panchsheel marg
10825.0,28.600783,77.1785,Railway Colony (Sardar Patel Marg),PTU‐10‐017,28.60056,77.18175,318.2540108496698,PTU at San Martin Road adjoining Panchsheel marg
3551.0,28.600817,77.228917,Sujan Singh Park,PTU‐08‐005,28.60069,77.22864,30.507765688907924,PTU near Ambassador Taxi Stand  Subhraminium Bharti Marg
13092.0,28.600817,77.228917,Sujan Singh Park,PTU‐08‐005,28.60069,77.22864,30.507765688907924,PTU near Ambassador Taxi Stand  Subhraminium Bharti Marg
14814.0,28.60084666666669,77.19256,UK High Commision,PTU‐10‐005,28.5992616,77.1954614,333.6139399320484,"PTU adjoining Ashoka Hotel Parking near Petrol Pump, Niti Marg"
2457.0,28.600892,77.192595,u k high commion,PTU‐10‐005,28.5992616,77.1954614,333.43137240877684,"PTU adjoining Ashoka Hotel Parking near Petrol Pump, Niti Marg"
2819.0,28.601017,77.22945,Sujan Singh Park,PTU‐08‐005,28.60069,77.22864,87.03645090634082,PTU near Ambassador Taxi Stand  Subhraminium Bharti Marg
12527.0,28.601017,77.22945,Sujan Singh Park,PTU‐08‐005,28.60069,77.22864,87.03645090634082,PTU near Ambassador Taxi Stand  Subhraminium Bharti Marg
3381.0,28.601288,77.222162,J and K House,PTU‐06‐010,28.6009163,77.2241636,199.7318412435236,"PTU near Gate No. 8 Rabinder Nagar , Amrita Shergill Marg"
12967.0,28.601288,77.222162,J and K House,PTU‐06‐010,28.6009163,77.2241636,199.7318412435236,"PTU near Gate No. 8 Rabinder Nagar , Amrita Shergill Marg"
1092.0,28.601413,77.23788,Golf Club / Sunder Nagar,PTU‐08‐001,28.60152,77.23835,47.40164460041422,PTU opp. Kaka Nagar Mkt. Dr. Zakir Hussain Marg
11024.0,28.601413,77.23788,Golf Club / Sunder Nagar,PTU‐08‐001,28.60152,77.23835,47.40164460041422,PTU opp. Kaka Nagar Mkt. Dr. Zakir Hussain Marg
20047.0,28.6016,77.2248,Khan Market,PTU‐06‐010,28.6009163,77.2241636,98.18190587121154,"PTU near Gate No. 8 Rabinder Nagar , Amrita Shergill Marg"
20333.0,28.6017,77.1803,Malcha Marg xing,PTU‐10‐017,28.60056,77.18175,190.01927576258015,PTU at San Martin Road adjoining Panchsheel marg
3764.0,28.601733,77.237817,Golf Club,PTU‐08‐001,28.60152,77.23835,57.1712143587806,PTU opp. Kaka Nagar Mkt. Dr. Zakir Hussain Marg
13248.0,28.601733,77.237817,Golf Club,PTU‐08‐001,28.60152,77.23835,57.1712143587806,PTU opp. Kaka Nagar Mkt. Dr. Zakir Hussain Marg
20102.0,28.6018,77.1802,Malcha marg Xing,PTU‐10‐017,28.60056,77.18175,204.7175424750256,PTU at San Martin Road adjoining Panchsheel marg
2976.0,28.601931,77.222648,J and K House,PTU‐06‐010,28.6009163,77.2241636,186.07312035886795,"PTU near Gate No. 8 Rabinder Nagar , Amrita Shergill Marg"
12656.0,28.601931,77.222648,J and K House,PTU‐06‐010,28.6009163,77.2241636,186.07312035886795,"PTU near Gate No. 8 Rabinder Nagar , Amrita Shergill Marg"
15281.0,28.602033170719576,77.24043399095534,Sunder Nagar Market,PTU‐08‐001,28.60152,77.23835,211.3015068612668,PTU opp. Kaka Nagar Mkt. Dr. Zakir Hussain Marg
14565.0,28.60205105315101,77.24072635173799,Sunder Nagar Market,PTU‐08‐001,28.60152,77.23835,239.3900319503511,PTU opp. Kaka Nagar Mkt. Dr. Zakir Hussain Marg
1027.0,28.602055,77.217749,Claridges Hotel,PTU‐07‐016,28.60106,77.21694,135.93639635110176,PTU at Tees January Marg.
10960.0,28.602055,77.217749,Claridges Hotel,PTU‐07‐016,28.60106,77.21694,135.93639635110176,PTU at Tees January Marg.
15055.0,28.602117,77.21765,Claridges Hotel,PTU‐07‐016,28.60106,77.21694,136.44957783073593,PTU at Tees January Marg.
3495.0,28.6022,77.240417,Sunder Nagar,PTU‐08‐001,28.60152,77.23835,215.4930452382349,PTU opp. Kaka Nagar Mkt. Dr. Zakir Hussain Marg
13054.0,28.6022,77.240417,Sunder Nagar,PTU‐08‐001,28.60152,77.23835,215.4930452382349,PTU opp. Kaka Nagar Mkt. Dr. Zakir Hussain Marg
4308.0,28.6022,77.24041700000002,Sunder Nagar,PTU‐08‐001,28.60152,77.23835,215.493045240561,PTU opp. Kaka Nagar Mkt. Dr. Zakir Hussain Marg
13598.0,28.6022,77.24041700000002,Sunder Nagar,PTU‐08‐001,28.60152,77.23835,215.493045240561,PTU opp. Kaka Nagar Mkt. Dr. Zakir Hussain Marg
346.0,28.602217,77.2404,Sunder Nagar,PTU‐08‐001,28.60152,77.23835,214.6150858260025,PTU opp. Kaka Nagar Mkt. Dr. Zakir Hussain Marg
10320.0,28.602217,77.2404,Sunder Nagar,PTU‐08‐001,28.60152,77.23835,214.6150858260025,PTU opp. Kaka Nagar Mkt. Dr. Zakir Hussain Marg
3090.0,28.602461,77.217855,Claridges Hotel,PTU‐07‐016,28.60106,77.21694,179.5774898097208,PTU at Tees January Marg.
12751.0,28.602461,77.217855,Claridges Hotel,PTU‐07‐016,28.60106,77.21694,179.5774898097208,PTU at Tees January Marg.
3552.0,28.602867,77.2278501,Humayun Road / Khan Market,PTU‐06‐017,28.6027,77.22824,42.35192482140376,PTU at Humayun Road near Metro Station
13093.0,28.602867,77.2278501,Humayun Road / Khan Market,PTU‐06‐017,28.6027,77.22824,42.35192482140376,PTU at Humayun Road near Metro Station
14857.0,28.60318868,77.18288145,malcha marg,PTU‐10‐002,28.60338,77.18572,277.9265715929883,PTU at Dharm Marg adjoining  Rajdoot Marg
2818.0,28.6033331,77.2272001,Humayun Road / Khan Market,PTU‐06‐017,28.6027,77.22824,123.53967637759432,PTU at Humayun Road near Metro Station
12526.0,28.6033331,77.2272001,Humayun Road / Khan Market,PTU‐06‐017,28.6027,77.22824,123.53967637759432,PTU at Humayun Road near Metro Station
2456.0,28.603681,77.196685,PS Chankya Puri,PTU‐04‐018,28.6007,77.19621,334.70001158700194,PTU near Horticulture Nursery at Talkatora Lane
12225.0,28.603681,77.196685,PS Chankya Puri,PTU‐04‐018,28.6007,77.19621,334.70001158700194,PTU near Horticulture Nursery at Talkatora Lane
1552.0,28.6038,77.184,Bhartiya Sadhu Samaj,PTU‐10‐002,28.60338,77.18572,174.28679345715855,PTU at Dharm Marg adjoining  Rajdoot Marg
11435.0,28.6038,77.184,Bhartiya Sadhu Samaj,PTU‐10‐002,28.60338,77.18572,174.28679345715855,PTU at Dharm Marg adjoining  Rajdoot Marg
2317.0,28.603826,77.196413,PS Chankya Puri,PTU‐04‐018,28.6007,77.19621,348.1598343400084,PTU near Horticulture Nursery at Talkatora Lane
12102.0,28.603826,77.196413,PS Chankya Puri,PTU‐04‐018,28.6007,77.19621,348.1598343400084,PTU near Horticulture Nursery at Talkatora Lane
880.0,28.603917,77.1845,Bhartiya Sadhu Samaj,PTU‐10‐002,28.60338,77.18572,133.23122476027217,PTU at Dharm Marg adjoining  Rajdoot Marg
10824.0,28.603917,77.1845,Bhartiya Sadhu Samaj,PTU‐10‐002,28.60338,77.18572,133.23122476027217,PTU at Dharm Marg adjoining  Rajdoot Marg
837.0,28.6051,77.2111,Krishan Menon Marg,PTU‐07‐013,28.60438,77.20835,280.1463053929137,PTU at K. Kamraj Lane
10782.0,28.6051,77.2111,Krishan Menon Marg,PTU‐07‐013,28.60438,77.20835,280.1463053929137,PTU at K. Kamraj Lane
1785.0,28.605254,77.240356,Sunder Nagar,PTU‐08‐001,28.60152,77.23835,459.0680992152876,PTU opp. Kaka Nagar Mkt. Dr. Zakir Hussain Marg
11640.0,28.605254,77.240356,Sunder Nagar,PTU‐08‐001,28.60152,77.23835,459.0680992152876,PTU opp. Kaka Nagar Mkt. Dr. Zakir Hussain Marg
15282.0,28.605452412880588,77.24021404981616,Sunder Nagar,PTU‐08‐001,28.60152,77.23835,473.61946290404165,PTU opp. Kaka Nagar Mkt. Dr. Zakir Hussain Marg
14529.0,28.60566,77.22586,Kota House,CTU‐06‐003,28.60613,77.22708,130.0605432814837,CTU at  Indira Camp near D II flats pandara road
2716.0,28.6057,77.2351,Bapa Nagar,PTU‐06‐018,28.60671715,77.23514048,113.17093398120812,PTU in High Court Lane towards Dr.Zakir Hussain Marg
12439.0,28.6057,77.2351,Bapa Nagar,PTU‐06‐018,28.60671715,77.23514048,113.17093398120812,PTU in High Court Lane towards Dr.Zakir Hussain Marg
1093.0,28.605713,77.237097,Kaka Nagar,PTU‐06‐018,28.60671715,77.23514048,221.24088108463872,PTU in High Court Lane towards Dr.Zakir Hussain Marg
11025.0,28.605713,77.237097,Kaka Nagar,PTU‐06‐018,28.60671715,77.23514048,221.24088108463872,PTU in High Court Lane towards Dr.Zakir Hussain Marg
2455.0,28.605812,77.199052,Teen Murti,PTU‐07‐006,28.6083711,77.1989835,284.63749695862475,PTU at South Avenue  near DMS Booth (LHS)
12224.0,28.605812,77.199052,Teen Murti,PTU‐07‐006,28.6083711,77.1989835,284.63749695862475,PTU at South Avenue  near DMS Booth (LHS)
2977.0,28.6059,77.2259,Humayun Road Khan Mkt Metro Stn,CTU‐06‐003,28.60613,77.22708,117.99842870484436,CTU at  Indira Camp near D II flats pandara road
12657.0,28.6059,77.2259,Humayun Road Khan Mkt Metro Stn,CTU‐06‐003,28.60613,77.22708,117.99842870484436,CTU at  Indira Camp near D II flats pandara road
14856.0,28.606016666666694,77.1986283333333,Chanakya Puri Police Station,PTU‐07‐006,28.6083711,77.1989835,264.08692391329106,PTU at South Avenue  near DMS Booth (LHS)
14110.0,28.60613,77.226,Kotah House,CTU‐06‐003,28.60613,77.22708,105.4312817581296,CTU at  Indira Camp near D II flats pandara road
2318.0,28.606157,77.198901,Teen Murti,PTU‐07‐006,28.6083711,77.1989835,246.32837976612012,PTU at South Avenue  near DMS Booth (LHS)
12103.0,28.606157,77.198901,Teen Murti,PTU‐07‐006,28.6083711,77.1989835,246.32837976612012,PTU at South Avenue  near DMS Booth (LHS)
3763.0,28.60635,77.234917,Bapa Nagar,PTU‐06‐018,28.60671715,77.23514048,46.28879868481226,PTU in High Court Lane towards Dr.Zakir Hussain Marg
13247.0,28.60635,77.234917,Bapa Nagar,PTU‐06‐018,28.60671715,77.23514048,46.28879868481226,PTU in High Court Lane towards Dr.Zakir Hussain Marg
20103.0,28.6068,77.1881,Hotel Diplomat New Delhi,CTU‐07‐002,28.6078765,77.1914274,346.1761024573241,"CTU in J J Camp along Kushak Nallaha, Keventer Lane"
2393.0,28.6069,77.2098,Krishan Menon Marg,PTU‐07‐013,28.60438,77.20835,313.9351375750258,PTU at K. Kamraj Lane
12173.0,28.6069,77.2098,Krishan Menon Marg,PTU‐07‐013,28.60438,77.20835,313.9351375750258,PTU at K. Kamraj Lane
2978.0,28.607322,77.226926,Shahjahan Road UPSC,CTU‐06‐003,28.60613,77.22708,133.3942111280417,CTU at  Indira Camp near D II flats pandara road
12658.0,28.607322,77.226926,Shahjahan Road UPSC,CTU‐06‐003,28.60613,77.22708,133.3942111280417,CTU at  Indira Camp near D II flats pandara road
1553.0,28.6075,77.1887,Palika Kutumb,CTU‐07‐002,28.6078765,77.1914274,269.52039768246846,"CTU in J J Camp along Kushak Nallaha, Keventer Lane"
11436.0,28.6075,77.1887,Palika Kutumb,CTU‐07‐002,28.6078765,77.1914274,269.52039768246846,"CTU in J J Camp along Kushak Nallaha, Keventer Lane"
879.0,28.6078,77.1891,Palika Kutumb,CTU‐07‐002,28.6078765,77.1914274,227.3599024211869,"CTU in J J Camp along Kushak Nallaha, Keventer Lane"
10823.0,28.6078,77.1891,Palika Kutumb,CTU‐07‐002,28.6078765,77.1914274,227.3599024211869,"CTU in J J Camp along Kushak Nallaha, Keventer Lane"
2452.0,28.608163,77.206674,Sena Bhawan,PTU‐07‐003,28.6070439,77.2036268,322.447248685585,PTU at Kushak Road adjoining CPWD Enquiry
12221.0,28.608163,77.206674,Sena Bhawan,PTU‐07‐003,28.6070439,77.2036268,322.447248685585,PTU at Kushak Road adjoining CPWD Enquiry
2321.0,28.608265,77.206612,Sena Bhawan,PTU‐07‐003,28.6070439,77.2036268,321.4954428977097,PTU at Kushak Road adjoining CPWD Enquiry
12106.0,28.608265,77.206612,Sena Bhawan,PTU‐07‐003,28.6070439,77.2036268,321.4954428977097,PTU at Kushak Road adjoining CPWD Enquiry
15496.0,28.608296986852235,77.22796708345416,Shajahan Road UPSC,PTU‐06‐004,28.60809,77.22948,149.47299402962545,PTU at Pandara Road Market (Right side)
347.0,28.60831,77.240026,Zoo,PTU‐06‐001,28.6102431,77.2354512,495.62355003906754,PTU in Parking at Shershah Road toward National Gallery of Art
10321.0,28.60831,77.240026,Zoo,PTU‐06‐001,28.6102431,77.2354512,495.62355003906754,PTU in Parking at Shershah Road toward National Gallery of Art
1784.0,28.608422,77.240216,Zoo,PTU‐06‐001,28.6102431,77.2354512,507.3004930807725,PTU in Parking at Shershah Road toward National Gallery of Art
11639.0,28.608422,77.240216,Zoo,PTU‐06‐001,28.6102431,77.2354512,507.3004930807725,PTU in Parking at Shershah Road toward National Gallery of Art
4300.0,28.608445,77.240173,Zoo,PTU‐06‐001,28.6102431,77.2354512,502.4313433208556,PTU in Parking at Shershah Road toward National Gallery of Art
13595.0,28.608445,77.240173,Zoo,PTU‐06‐001,28.6102431,77.2354512,502.4313433208556,PTU in Parking at Shershah Road toward National Gallery of Art
2817.0,28.608505,77.227938,Shajahan Road UPSC,PTU‐06‐004,28.60809,77.22948,157.44371825485158,PTU at Pandara Road Market (Right side)
12525.0,28.608505,77.227938,Shajahan Road UPSC,PTU‐06‐004,28.60809,77.22948,157.44371825485158,PTU at Pandara Road Market (Right side)
20169.0,28.6089,77.1901,11 Murti,CTU‐07‐002,28.6078765,77.1914274,172.46233496515168,"CTU in J J Camp along Kushak Nallaha, Keventer Lane"
2717.0,28.6089,77.2333,Jaipur House,CTU‐06‐001,28.60817,77.23208,144.12736484518194,CTU at Jodhpur Mess Pandara Road Toilet‐1
12440.0,28.6089,77.2333,Jaipur House,CTU‐06‐001,28.60817,77.23208,144.12736484518194,CTU at Jodhpur Mess Pandara Road Toilet‐1
2453.0,28.608938,77.203077,Tyag Raj Marg,PTU‐07‐005,28.60803,77.2024,120.67143428396236,PTUNear Shop No. 1 South Avenue  Market
12222.0,28.608938,77.203077,Tyag Raj Marg,PTU‐07‐005,28.60803,77.2024,120.67143428396236,PTUNear Shop No. 1 South Avenue  Market
2320.0,28.608993,77.203197,Tyag Raj Marg,PTU‐07‐005,28.60803,77.2024,132.36134879644436,PTUNear Shop No. 1 South Avenue  Market
12105.0,28.608993,77.203197,Tyag Raj Marg,PTU‐07‐005,28.60803,77.2024,132.36134879644436,PTUNear Shop No. 1 South Avenue  Market
1443.0,28.6093,77.23845,High Court,PTU‐06‐001,28.6102431,77.2354512,310.95410656021977,PTU in Parking at Shershah Road toward National Gallery of Art
11331.0,28.6093,77.23845,High Court,PTU‐06‐001,28.6102431,77.2354512,310.95410656021977,PTU in Parking at Shershah Road toward National Gallery of Art
1783.0,28.609467,77.2379,High Court,PTU‐06‐001,28.6102431,77.2354512,254.1475382508792,PTU in Parking at Shershah Road toward National Gallery of Art
11638.0,28.609467,77.2379,High Court,PTU‐06‐001,28.6102431,77.2354512,254.1475382508792,PTU in Parking at Shershah Road toward National Gallery of Art
3762.0,28.6095,77.2332,Jaipur House,CTU‐06‐001,28.60817,77.23208,183.91576273976864,CTU at Jodhpur Mess Pandara Road Toilet‐1
13246.0,28.6095,77.2332,Jaipur House,CTU‐06‐001,28.60817,77.23208,183.91576273976864,CTU at Jodhpur Mess Pandara Road Toilet‐1
15765.0,28.609574209065,77.2099145421136,G Block (Kamraj Marg),PTU‐07‐009,28.61037,77.21256,272.9839111783837,PTU at Moti Lal Nehru marg near Sunheri Masjid
836.0,28.609631,77.209798,Sunehri Masjid/ G Block,PTU‐07‐009,28.61037,77.21256,281.86484321951576,PTU at Moti Lal Nehru marg near Sunheri Masjid
10781.0,28.609631,77.209798,Sunehri Masjid/ G Block,PTU‐07‐009,28.61037,77.21256,281.86484321951576,PTU at Moti Lal Nehru marg near Sunheri Masjid
2322.0,28.609639,77.209585,G Block,PTU‐07‐009,28.61037,77.21256,301.574139105996,PTU at Moti Lal Nehru marg near Sunheri Masjid
12107.0,28.609639,77.209585,G Block,PTU‐07‐009,28.61037,77.21256,301.574139105996,PTU at Moti Lal Nehru marg near Sunheri Masjid
15824.0,28.6096778166617,77.209908857611,G Block,PTU‐07‐009,28.61037,77.21256,270.001689986567,PTU at Moti Lal Nehru marg near Sunheri Masjid
2719.0,28.610033,77.221967,Vigyan Bhawan,PTU‐06‐008,28.60889,77.22461,287.6112462527785,"PTU at Jam Nagar House, Entry gate, Man Singh Road"
12442.0,28.610033,77.221967,Vigyan Bhawan,PTU‐06‐008,28.60889,77.22461,287.6112462527785,"PTU at Jam Nagar House, Entry gate, Man Singh Road"
20332.0,28.6101,77.1914,11 Murti,CTU‐07‐002,28.6078765,77.1914274,247.25638724920805,"CTU in J J Camp along Kushak Nallaha, Keventer Lane"
15142.0,28.610117,77.19915,South Enclave,PTU‐07‐007,28.61094,77.19825,126.85950862704196,"PTU near Gate No.17, President House at South Avenue"
2319.0,28.610135,77.199151,South Enclave,PTU‐07‐007,28.61094,77.19825,125.4917202402676,"PTU near Gate No.17, President House at South Avenue"
12104.0,28.610135,77.199151,South Enclave,PTU‐07‐007,28.61094,77.19825,125.4917202402676,"PTU near Gate No.17, President House at South Avenue"
2720.0,28.610193,77.217169,Nirman Bhawan,PTU‐07‐011,28.60735795,77.21409478,435.2468527081692,PTU near Taxi Stand K.M. Lane
12443.0,28.610193,77.217169,Nirman Bhawan,PTU‐07‐011,28.60735795,77.21409478,435.2468527081692,PTU near Taxi Stand K.M. Lane
3499.0,28.610217,77.22165,Vigyan Bhawan,PTU‐06‐008,28.60889,77.22461,324.4456880999028,"PTU at Jam Nagar House, Entry gate, Man Singh Road"
13058.0,28.610217,77.22165,Vigyan Bhawan,PTU‐06‐008,28.60889,77.22461,324.4456880999028,"PTU at Jam Nagar House, Entry gate, Man Singh Road"
2454.0,28.610266,77.199312,South Enclave,PTU‐07‐007,28.61094,77.19825,127.92268175621612,"PTU near Gate No.17, President House at South Avenue"
12223.0,28.610266,77.199312,South Enclave,PTU‐07‐007,28.61094,77.19825,127.92268175621612,"PTU near Gate No.17, President House at South Avenue"
20104.0,28.6103,77.191,11 Murti,CTU‐07‐002,28.6078765,77.1914274,272.6915960318012,"CTU in J J Camp along Kushak Nallaha, Keventer Lane"
14007.0,28.6103,77.191,11 Murti,CTU‐07‐002,28.6078765,77.1914274,272.6915960318012,"CTU in J J Camp along Kushak Nallaha, Keventer Lane"
15053.0,28.61035,77.233517,Art Gallery,PTU‐06‐001,28.6102431,77.2354512,189.18592411837076,PTU in Parking at Shershah Road toward National Gallery of Art
15851.0,28.6103512635495,77.2333840179974,National Gallary of Modern Art,PTU‐14‐009,28.60992,77.23139,200.4717154569968,PTU at Children Park towards India Gate
3498.0,28.610381,77.217327,Nirman Bhawan,PTU‐07‐011,28.60735795,77.21409478,461.03372141498977,PTU near Taxi Stand K.M. Lane
13057.0,28.610381,77.217327,Nirman Bhawan,PTU‐07‐011,28.60735795,77.21409478,461.03372141498977,PTU near Taxi Stand K.M. Lane
1444.0,28.610409,77.23348,Art Gallery,PTU‐06‐001,28.6102431,77.2354512,193.306152149129,PTU in Parking at Shershah Road toward National Gallery of Art
11332.0,28.610409,77.23348,Art Gallery,PTU‐06‐001,28.6102431,77.2354512,193.306152149129,PTU in Parking at Shershah Road toward National Gallery of Art
2721.0,28.610467,77.21315,Udyog Bhawan,PTU‐07‐009,28.61037,77.21256,58.59562253561513,PTU at Moti Lal Nehru marg near Sunheri Masjid
12444.0,28.610467,77.21315,Udyog Bhawan,PTU‐07‐009,28.61037,77.21256,58.59562253561513,PTU at Moti Lal Nehru marg near Sunheri Masjid
3330.0,28.610497,77.24023,National Stadium,PTU‐06‐001,28.6102431,77.2354512,467.34860329947617,PTU in Parking at Shershah Road toward National Gallery of Art
12925.0,28.610497,77.24023,National Stadium,PTU‐06‐001,28.6102431,77.2354512,467.34860329947617,PTU in Parking at Shershah Road toward National Gallery of Art
15077.0,28.6105,77.2402,National Stadium,PTU‐06‐001,28.6102431,77.2354512,464.4458482975148,PTU in Parking at Shershah Road toward National Gallery of Art
2718.0,28.61055,77.226083,AkbarRoad,PTU‐06‐008,28.60889,77.22461,233.98105273021977,"PTU at Jam Nagar House, Entry gate, Man Singh Road"
12441.0,28.61055,77.226083,AkbarRoad,PTU‐06‐008,28.60889,77.22461,233.98105273021977,"PTU at Jam Nagar House, Entry gate, Man Singh Road"
3497.0,28.6106,77.2131,Udyog Bhawan,PTU‐07‐009,28.61037,77.21256,58.589935024128,PTU at Moti Lal Nehru marg near Sunheri Masjid
13056.0,28.6106,77.2131,Udyog Bhawan,PTU‐07‐009,28.61037,77.21256,58.589935024128,PTU at Moti Lal Nehru marg near Sunheri Masjid
4146.0,28.6106,77.2261,Akbar Road,PTU‐06‐008,28.60889,77.22461,239.3961376511708,"PTU at Jam Nagar House, Entry gate, Man Singh Road"
13498.0,28.6106,77.2261,Akbar Road,PTU‐06‐008,28.60889,77.22461,239.3961376511708,"PTU at Jam Nagar House, Entry gate, Man Singh Road"
3500.0,28.610633,77.22595,Akbar Road,PTU‐06‐008,28.60889,77.22461,233.82517639045605,"PTU at Jam Nagar House, Entry gate, Man Singh Road"
13059.0,28.610633,77.22595,Akbar Road,PTU‐06‐008,28.60889,77.22461,233.82517639045605,"PTU at Jam Nagar House, Entry gate, Man Singh Road"
2589.0,28.610652,77.240152,National Stadium,PTU‐06‐001,28.6102431,77.2354512,461.12760464331257,PTU in Parking at Shershah Road toward National Gallery of Art
12337.0,28.610652,77.240152,National Stadium,PTU‐06‐001,28.6102431,77.2354512,461.12760464331257,PTU in Parking at Shershah Road toward National Gallery of Art
878.0,28.611,77.1908,Sardar Patel Road Xing (11 Murti),CTU‐07‐002,28.6078765,77.1914274,352.67605023877616,"CTU in J J Camp along Kushak Nallaha, Keventer Lane"
10822.0,28.611,77.1908,Sardar Patel Road Xing (11 Murti),CTU‐07‐002,28.6078765,77.1914274,352.67605023877616,"CTU in J J Camp along Kushak Nallaha, Keventer Lane"
348.0,28.611043,77.239986,National Stadium,PTU‐06‐001,28.6102431,77.2354512,451.52245939450233,PTU in Parking at Shershah Road toward National Gallery of Art
10322.0,28.611043,77.239986,National Stadium,PTU‐06‐001,28.6102431,77.2354512,451.52245939450233,PTU in Parking at Shershah Road toward National Gallery of Art
1554.0,28.61105,77.1907,11 Murti,CTU‐07‐002,28.6078765,77.1914274,359.95046376046275,"CTU in J J Camp along Kushak Nallaha, Keventer Lane"
11437.0,28.61105,77.1907,11 Murti,CTU‐07‐002,28.6078765,77.1914274,359.95046376046275,"CTU in J J Camp along Kushak Nallaha, Keventer Lane"
3089.0,28.611125,77.218396,National Muesum,PTU‐04‐009,28.6166435,77.2175201,619.5571955176429,PTU at Dr.R P Road in front of National Archives of India
12750.0,28.611125,77.218396,National Muesum,PTU‐04‐009,28.6166435,77.2175201,619.5571955176429,PTU at Dr.R P Road in front of National Archives of India
4581.0,28.6114665690828,77.2463569164403,Bhairon Mandir Pragati Maidan,PTU‐14‐008,28.6165,77.23983,848.04313061444,PTU adjoining  Mathura Road at Purana Quila Road
4412.0,28.611672,77.246533,Pragati Maidan Terminal / Bhairon Mandir,PTU‐14‐008,28.6165,77.23983,846.3601945157164,PTU adjoining  Mathura Road at Purana Quila Road
1028.0,28.611677,77.218376,National Museum,PTU‐04‐009,28.6166435,77.2175201,558.5336842095533,PTU at Dr.R P Road in front of National Archives of India
10961.0,28.611677,77.218376,National Museum,PTU‐04‐009,28.6166435,77.2175201,558.5336842095533,PTU at Dr.R P Road in front of National Archives of India
4413.0,28.611788,77.243762,Pragati Maidan Terminal / Purana Qila,PTU‐14‐008,28.6165,77.23983,649.4928013612771,PTU adjoining  Mathura Road at Purana Quila Road
13662.0,28.611788,77.243762,Pragati Maidan Terminal / Purana Qila,PTU‐14‐008,28.6165,77.23983,649.4928013612771,PTU adjoining  Mathura Road at Purana Quila Road
835.0,28.612588,77.212235,Udyog Bhawan,PTU‐07‐009,28.61037,77.21256,248.66247931262825,PTU at Moti Lal Nehru marg near Sunheri Masjid
10780.0,28.612588,77.212235,Udyog Bhawan,PTU‐07‐009,28.61037,77.21256,248.66247931262825,PTU at Moti Lal Nehru marg near Sunheri Masjid
4512.0,28.6126,77.2122,Udyog Bhawan,PTU‐07‐009,28.61037,77.21256,250.4424958052028,PTU at Moti Lal Nehru marg near Sunheri Masjid
13713.0,28.6126,77.2122,Udyog Bhawan,PTU‐07‐009,28.61037,77.21256,250.4424958052028,PTU at Moti Lal Nehru marg near Sunheri Masjid
3505.0,28.612697,77.245017,Pragati Maidan (Bhairon Marg),PTU‐14‐008,28.6165,77.23983,659.685413370898,PTU adjoining  Mathura Road at Purana Quila Road
13064.0,28.612697,77.245017,Pragati Maidan (Bhairon Marg),PTU‐14‐008,28.6165,77.23983,659.685413370898,PTU adjoining  Mathura Road at Purana Quila Road
4513.0,28.6127,77.245,Pragati Maidan Terminal,PTU‐14‐008,28.6165,77.23983,658.1984186176946,PTU adjoining  Mathura Road at Purana Quila Road
2323.0,28.612729,77.211891,Udyog Bhawan,PTU‐07‐009,28.61037,77.21256,270.3159733612471,PTU at Moti Lal Nehru marg near Sunheri Masjid
12108.0,28.612729,77.211891,Udyog Bhawan,PTU‐07‐009,28.61037,77.21256,270.3159733612471,PTU at Moti Lal Nehru marg near Sunheri Masjid
14896.0,28.6133783333333,77.2345566666667,Patiala House Court,PTU‐14‐006,28.61483,77.23409,167.72257101891216,"PTU in lane near Patiala House Court, Purana Quila Road"
15342.0,28.6136,77.2347,shahjahan road / upsc,PTU‐14‐006,28.61483,77.23409,149.16944260972815,"PTU in lane near Patiala House Court, Purana Quila Road"
14470.0,28.613617,77.2391835,National Stadium,CTU‐14‐002,28.6158759,77.2383752,263.27907435754,"CTU at NSCI JJ Camp, Purana Quila Road"
1782.0,28.613649,77.23467,National Stadium,PTU‐14‐006,28.61483,77.23409,143.00575578314306,"PTU in lane near Patiala House Court, Purana Quila Road"
11637.0,28.613649,77.23467,National Stadium,PTU‐14‐006,28.61483,77.23409,143.00575578314306,"PTU in lane near Patiala House Court, Purana Quila Road"
14498.0,28.61407100000001,77.2426785,National Stadium,PTU‐14‐008,28.6165,77.23983,387.6366550831016,PTU adjoining  Mathura Road at Purana Quila Road
4971.0,28.6145,77.2277,India Gate,PTU‐05‐020,28.61685,77.22914,296.7147836852548,"PTU near Baroda House, K.G. Marg"
1029.0,28.614678,77.218542,National Archives,PTU‐04‐009,28.6166435,77.2175201,240.24120038333285,PTU at Dr.R P Road in front of National Archives of India
10962.0,28.614678,77.218542,National Archives,PTU‐04‐009,28.6166435,77.2175201,240.24120038333285,PTU at Dr.R P Road in front of National Archives of India
15150.0,28.61472900456519,77.1900647878647,11Murti,CTU‐07‐002,28.6078765,77.1914274,773.4865269795257,"CTU in J J Camp along Kushak Nallaha, Keventer Lane"
2451.0,28.614958,77.212395,Krishi Bhawan / Rail Bhawan Metro Station,PTU‐04‐008,28.61695,77.21414,279.4207306331219,PTU at Dr. Rajender Prasad Road Opp. Shastri Bhawan
12220.0,28.614958,77.212395,Krishi Bhawan / Rail Bhawan Metro Station,PTU‐04‐008,28.61695,77.21414,279.4207306331219,PTU at Dr. Rajender Prasad Road Opp. Shastri Bhawan
834.0,28.615,77.2124,Krishi Bhawan,PTU‐04‐008,28.61695,77.21414,275.4320599090137,PTU at Dr. Rajender Prasad Road Opp. Shastri Bhawan
10779.0,28.615,77.2124,Krishi Bhawan,PTU‐04‐008,28.61695,77.21414,275.4320599090137,PTU at Dr. Rajender Prasad Road Opp. Shastri Bhawan
2324.0,28.615002,77.212136,Rail Bhawan Metro Station / Krishi Bhawan,PTU‐04‐008,28.61695,77.21414,291.8633831640634,PTU at Dr. Rajender Prasad Road Opp. Shastri Bhawan
12109.0,28.615002,77.212136,Rail Bhawan Metro Station / Krishi Bhawan,PTU‐04‐008,28.61695,77.21414,291.8633831640634,PTU at Dr. Rajender Prasad Road Opp. Shastri Bhawan
2588.0,28.615415,77.240342,ITPO Gate No. 3,PTU‐14‐008,28.6165,77.23983,130.5884124822845,PTU adjoining  Mathura Road at Purana Quila Road
12336.0,28.615415,77.240342,ITPO Gate No. 3,PTU‐14‐008,28.6165,77.23983,130.5884124822845,PTU adjoining  Mathura Road at Purana Quila Road
4666.0,28.615467,77.24035,ITPO Gate No. 3,PTU‐14‐008,28.6165,77.23983,125.57962041080944,PTU adjoining  Mathura Road at Purana Quila Road
13786.0,28.615467,77.24035,ITPO Gate No. 3,PTU‐14‐008,28.6165,77.23983,125.57962041080944,PTU adjoining  Mathura Road at Purana Quila Road
3088.0,28.615573,77.218697,National Archives,PTU‐04‐009,28.6166435,77.2175201,165.42830512063765,PTU at Dr.R P Road in front of National Archives of India
12749.0,28.615573,77.218697,National Archives,PTU‐04‐009,28.6166435,77.2175201,165.42830512063765,PTU at Dr.R P Road in front of National Archives of India
2649.0,28.615698,77.249945,Pragati Power Station,PTU‐14‐008,28.6165,77.23983,991.3674992532922,PTU adjoining  Mathura Road at Purana Quila Road
12382.0,28.615698,77.249945,Pragati Power Station,PTU‐14‐008,28.6165,77.23983,991.3674992532922,PTU adjoining  Mathura Road at Purana Quila Road
1781.0,28.615873,77.230165,Baroda House,PTU‐05‐020,28.61685,77.22914,147.69078104217968,"PTU near Baroda House, K.G. Marg"
11636.0,28.615873,77.230165,Baroda House,PTU‐05‐020,28.61685,77.22914,147.69078104217968,"PTU near Baroda House, K.G. Marg"
15343.0,28.615895,77.230278,Baroda House,PTU‐05‐020,28.61685,77.22914,153.6746014522584,"PTU near Baroda House, K.G. Marg"
349.0,28.616035,77.240208,ITPO Gate No. 3,PTU‐14‐008,28.6165,77.23983,63.52078791815201,PTU adjoining  Mathura Road at Purana Quila Road
10323.0,28.616035,77.240208,ITPO Gate No. 3,PTU‐14‐008,28.6165,77.23983,63.52078791815201,PTU adjoining  Mathura Road at Purana Quila Road
2816.0,28.61643,77.233868,Patiala House,PTU‐14‐003,28.61655,77.23408,24.622682798090977,PTU near Patiala House Court at Tilak Marg
12524.0,28.61643,77.233868,Patiala House,PTU‐14‐003,28.61655,77.23408,24.622682798090977,PTU near Patiala House Court at Tilak Marg
2979.0,28.616444,77.23376,Patiala House,PTU‐14‐004,28.61669,77.23383,28.194436574965295,PTU near Princess Park at Tilak Marg
12659.0,28.616444,77.23376,Patiala House,PTU‐14‐004,28.61669,77.23383,28.194436574965295,PTU near Princess Park at Tilak Marg
15292.0,28.61678008,77.21857387,Eastern Court,PTU‐04‐009,28.6166435,77.2175201,103.975417711698,PTU at Dr.R P Road in front of National Archives of India
141.0,28.616983,77.2137,Krishi Bhawan,PTU‐04‐008,28.61695,77.21414,43.10552136597585,PTU at Dr. Rajender Prasad Road Opp. Shastri Bhawan
10127.0,28.616983,77.2137,Krishi Bhawan,PTU‐04‐008,28.61695,77.21414,43.10552136597585,PTU at Dr. Rajender Prasad Road Opp. Shastri Bhawan
1445.0,28.617221,77.228557,Baroda House,PTU‐05‐020,28.61685,77.22914,70.28723306153537,"PTU near Baroda House, K.G. Marg"
11333.0,28.617221,77.228557,Baroda House,PTU‐05‐020,28.61685,77.22914,70.28723306153537,"PTU near Baroda House, K.G. Marg"
4577.0,28.617308,77.203983,Kendriya Terminal (Church Road),PTU‐04‐026,28.6174632,77.2045546,58.40245049470124,PTU at Church Road near Petrol Pump
13742.0,28.617308,77.203983,Kendriya Terminal (Church Road),PTU‐04‐026,28.6174632,77.2045546,58.40245049470124,PTU at Church Road near Petrol Pump
1780.0,28.617358,77.228653,Baroda House,PTU‐05‐020,28.61685,77.22914,73.8276681671709,"PTU near Baroda House, K.G. Marg"
11635.0,28.617358,77.228653,Baroda House,PTU‐05‐020,28.61685,77.22914,73.8276681671709,"PTU near Baroda House, K.G. Marg"
145.0,28.617383,77.20395,Kendriya Terminal (Church Road),PTU‐04‐026,28.6174632,77.2045546,59.68563024250897,PTU at Church Road near Petrol Pump
10131.0,28.617383,77.20395,Kendriya Terminal (Church Road),PTU‐04‐026,28.6174632,77.2045546,59.68563024250897,PTU at Church Road near Petrol Pump
1673.0,28.617483,77.213267,Krishi Bhawan,PTU‐04‐007,28.6175389,77.2140299,74.72638282974265,PTU at Rafi Marg adjacent to Chelmsford Club
11540.0,28.617483,77.213267,Krishi Bhawan,PTU‐04‐007,28.6175389,77.2140299,74.72638282974265,PTU at Rafi Marg adjacent to Chelmsford Club
15464.0,28.617501,77.203757,Kendriya Terminal (Church Road),PTU‐04‐026,28.6174632,77.2045546,77.96791582821987,PTU at Church Road near Petrol Pump
1684.0,28.617513,77.203683,Kendriya Terminal (Church Road),PTU‐04‐026,28.6174632,77.2045546,85.25776996921955,PTU at Church Road near Petrol Pump
11549.0,28.617513,77.203683,Kendriya Terminal (Church Road),PTU‐04‐026,28.6174632,77.2045546,85.25776996921955,PTU at Church Road near Petrol Pump
2587.0,28.617657,77.240496,Pragati Maidan Gate 5,PTU‐14‐008,28.6165,77.23983,144.1446046928752,PTU adjoining  Mathura Road at Purana Quila Road
12335.0,28.617657,77.240496,Pragati Maidan Gate 5,PTU‐14‐008,28.6165,77.23983,144.1446046928752,PTU adjoining  Mathura Road at Purana Quila Road
14748.0,28.61769306,77.21105532,Red Cross Road,PTU‐04‐002,28.62057,77.21056,323.53401093305195,PTU at Imtiaz Khan Road
14471.0,28.617767,77.24046700000002,Pragati Maidan Gate 5,PTU‐14‐008,28.6165,77.23983,153.99496496329456,PTU adjoining  Mathura Road at Purana Quila Road
1030.0,28.617942,77.218662,Windsor Place,PTU‐04‐009,28.6166435,77.2175201,182.40427087496295,PTU at Dr.R P Road in front of National Archives of India
10963.0,28.617942,77.218662,Windsor Place,PTU‐04‐009,28.6166435,77.2175201,182.40427087496295,PTU at Dr.R P Road in front of National Archives of India
142.0,28.618035,77.210453,Red Cross Road,PTU‐04‐002,28.62057,77.21056,282.07256207004883,PTU at Imtiaz Khan Road
10128.0,28.618035,77.210453,Red Cross Road,PTU‐04‐002,28.62057,77.21056,282.07256207004883,PTU at Imtiaz Khan Road
4498.0,28.618044,77.2189,Windsor Place,PTU‐04‐009,28.6166435,77.2175201,205.8973812206421,PTU at Dr.R P Road in front of National Archives of India
13701.0,28.618044,77.2189,Windsor Place,PTU‐04‐009,28.6166435,77.2175201,205.8973812206421,PTU at Dr.R P Road in front of National Archives of India
350.0,28.618483,77.240183,Pragati Maidan Gate No. 5,PTU‐14‐001,28.61971,77.24007,136.88129153400692,PTU at Bhagwan Dass Road
10324.0,28.618483,77.240183,Pragati Maidan Gate No. 5,PTU‐14‐001,28.61971,77.24007,136.88129153400692,PTU at Bhagwan Dass Road
1685.0,28.6185,77.206,Gurudwara Rakab Ganj,PTU(Petrol Pump 27),28.6175415,77.2052016,132.03333093145457,108E  Church Road  North Block  Rakab Ganj  New Delhi  Delhi 110001  India
11550.0,28.6185,77.206,Gurudwara Rakab Ganj,PTU(Petrol Pump 27),28.6175415,77.2052016,132.03333093145457,108E  Church Road  North Block  Rakab Ganj  New Delhi  Delhi 110001  India
140.0,28.619225,77.217521,Le Meridian Hotel / Rajendra Prasad Road,CTU‐04‐004,28.61791,77.21676,164.007240280103,CTU at Lane behind Le‐Meridian Hotel No.‐II
1674.0,28.619333,77.2176,Le Meridian Hotel,CTU‐04‐004,28.61791,77.21676,178.2122325543375,CTU at Lane behind Le‐Meridian Hotel No.‐II
11541.0,28.619333,77.2176,Le Meridian Hotel,CTU‐04‐004,28.61791,77.21676,178.2122325543375,CTU at Lane behind Le‐Meridian Hotel No.‐II
15070.0,28.61937,77.20175,north block lane,PTU‐04‐027,28.61841,77.20191,107.88353718406124,PTU at Church Lane near Church
444.0,28.6195,77.249,Indraprastha Depot,PTU‐14‐001,28.61971,77.24007,871.9613930523459,PTU at Bhagwan Dass Road
10409.0,28.6195,77.249,Indraprastha Depot,PTU‐14‐001,28.61971,77.24007,871.9613930523459,PTU at Bhagwan Dass Road
2815.0,28.619682,77.236336,Supreme Court,PTU‐14‐002,28.61808,77.23573,187.69847331872992,PTU near CSC Market at Tilak Lane
12523.0,28.619682,77.236336,Supreme Court,PTU‐14‐002,28.61808,77.23573,187.69847331872992,PTU near CSC Market at Tilak Lane
2790.0,28.619801,77.206282,Gurudwara Rakab Ganj,PTU‐04‐015,28.62035,77.20571,82.72751182152587,PTU  at Gurudwara Rakab Ganj Road
12505.0,28.619801,77.206282,Gurudwara Rakab Ganj,PTU‐04‐015,28.62035,77.20571,82.72751182152587,PTU  at Gurudwara Rakab Ganj Road
4578.0,28.619883,77.248333,Indraprastha Cluster Depot,PTU‐14‐001,28.61971,77.24007,806.7713477535782,PTU at Bhagwan Dass Road
15813.0,28.6199438808101,77.2182347670262,Windsor Place,PTU‐01‐036,28.62111,77.21885,142.8972566326856,PTU at Janpath near Sangrila Hotel
20009.0,28.6202,77.2386,Supreme Court,PTU‐14‐001,28.61971,77.24007,153.48146280508843,PTU at Bhagwan Dass Road
1112.0,28.620212,77.248532,Indraprastha Depot,PTU‐14‐001,28.61971,77.24007,827.8488853131838,PTU at Bhagwan Dass Road
11042.0,28.620212,77.248532,Indraprastha Depot,PTU‐14‐001,28.61971,77.24007,827.8488853131838,PTU at Bhagwan Dass Road
4847.0,28.62029,77.23811,Supreme Court,PTU‐14‐001,28.61971,77.24007,201.891092398964,PTU at Bhagwan Dass Road
13860.0,28.62029,77.23811,Supreme Court,PTU‐14‐001,28.61971,77.24007,201.891092398964,PTU at Bhagwan Dass Road
20019.0,28.6204,77.2386,Supreme Court,PTU‐14‐001,28.61971,77.24007,162.70985764157834,PTU at Bhagwan Dass Road
833.0,28.620515,77.212714,Aakashwani Bhawan,PTU‐04‐006,28.6208683,77.212491,44.91223440776216,PTU at Rafi Marg behind RBI
10778.0,28.620515,77.212714,Aakashwani Bhawan,PTU‐04‐006,28.6208683,77.212491,44.91223440776216,PTU at Rafi Marg behind RBI
2394.0,28.620532,77.210575,Aakashwani Bhawan,PTU‐04‐002,28.62057,77.21056,4.471881064885287,PTU at Imtiaz Khan Road
12174.0,28.620532,77.210575,Aakashwani Bhawan,PTU‐04‐002,28.62057,77.21056,4.471881064885287,PTU at Imtiaz Khan Road
3504.0,28.62059,77.23795,Supreme Court,PTU‐14‐001,28.61971,77.24007,228.8994973638544,PTU at Bhagwan Dass Road
13063.0,28.62059,77.23795,Supreme Court,PTU‐14‐001,28.61971,77.24007,228.8994973638544,PTU at Bhagwan Dass Road
143.0,28.62065,77.2098,Aakashwani Bhawan (Imtiyaz Ali Road),PTU‐04‐002,28.62057,77.21056,74.71361187159818,PTU at Imtiaz Khan Road
10129.0,28.62065,77.2098,Aakashwani Bhawan (Imtiyaz Ali Road),PTU‐04‐002,28.62057,77.21056,74.71361187159818,PTU at Imtiaz Khan Road
14342.0,28.62065875,77.22049205,Windsor Place,PTU‐01‐037,28.6214,77.21926,145.7925772851754,"PTU near Ashoka  Taxi Service, Janpath."
14927.0,28.62078,77.19998000000002,North Avenue,PTU‐04‐025,28.6208138,77.2002084,22.608235766399257,PTU at North Avenue
1675.0,28.6208,77.2206,Firoz Shah Road,PTU‐01‐037,28.6214,77.21926,146.827402670811,"PTU near Ashoka  Taxi Service, Janpath."
11542.0,28.6208,77.2206,Firoz Shah Road,PTU‐01‐037,28.6214,77.21926,146.827402670811,"PTU near Ashoka  Taxi Service, Janpath."
144.0,28.6209,77.2073,Gurudwara Rakab Ganj Road,PTU‐04‐012,28.6217406,77.2060852,150.98478387273505,PTU at Pt. Pant Marg near BQS in front of Bunglow No.‐15
10130.0,28.6209,77.2073,Gurudwara Rakab Ganj Road,PTU‐04‐012,28.6217406,77.2060852,150.98478387273505,PTU at Pt. Pant Marg near BQS in front of Bunglow No.‐15
14199.0,28.620966,77.2084875,Gurudwara Marg,PTU‐04‐002,28.62057,77.21056,207.0293941341857,PTU at Imtiaz Khan Road
139.0,28.621,77.2215,Firoz Shah Road,PTU‐05‐022,28.61941,77.22158,176.97229130860026,PTU opp. 1 Pt. Ravi Shankar Shukla Lane
10126.0,28.621,77.2215,Firoz Shah Road,PTU‐05‐022,28.61941,77.22158,176.97229130860026,PTU opp. 1 Pt. Ravi Shankar Shukla Lane
874.0,28.621017,77.205283,Kendriya Terminal / Gurudwara Rakab Gunj,PTU‐04‐014,28.6210627,77.2050895,19.558755247433457,PTU at Talkatora Road outside Bungalow No. 15
10818.0,28.621017,77.205283,Kendriya Terminal / Gurudwara Rakab Gunj,PTU‐04‐014,28.6210627,77.2050895,19.558755247433457,PTU at Talkatora Road outside Bungalow No. 15
15791.0,28.6210881551514,77.2074143648464,Gurudwara Rakab Ganj Road,PTU‐04‐012,28.6217406,77.2060852,148.6431647901163,PTU at Pt. Pant Marg near BQS in front of Bunglow No.‐15
1285.0,28.6212,77.2053,Kendriya Terminal / Gurudwara Rakab Gunj,PTU‐04‐014,28.6210627,77.2050895,25.59761508729541,PTU at Talkatora Road outside Bungalow No. 15
11193.0,28.6212,77.2053,Kendriya Terminal / Gurudwara Rakab Gunj,PTU‐04‐014,28.6210627,77.2050895,25.59761508729541,PTU at Talkatora Road outside Bungalow No. 15
3986.0,28.621227,77.199817,North Avenue,PTU‐04‐025,28.6208138,77.2002084,59.753920882341525,PTU at North Avenue
13379.0,28.621227,77.199817,North Avenue,PTU‐04‐025,28.6208138,77.2002084,59.753920882341525,PTU at North Avenue
877.0,28.6212541,77.1942054,Talkatora Stadium Garden,PTU‐10‐003,28.62161,77.19462,56.60196386598929,PTU at Kautilya Marg
10821.0,28.6212541,77.1942054,Talkatora Stadium Garden,PTU‐10‐003,28.62161,77.19462,56.60196386598929,PTU at Kautilya Marg
1779.0,28.6213,77.2264,Bhartiya Vidya Bhawan,PTU‐05‐021,28.61806,77.22679,362.2771492506469,PTU at Jashwant Singh Lane behind Hyderabad House
11634.0,28.6213,77.2264,Bhartiya Vidya Bhawan,PTU‐05‐021,28.61806,77.22679,362.2771492506469,PTU at Jashwant Singh Lane behind Hyderabad House
873.0,28.6214,77.2064,Kendriya Terminal (Pt. Pant Marg),PTU‐04‐012,28.6217406,77.2060852,48.769832969740975,PTU at Pt. Pant Marg near BQS in front of Bunglow No.‐15
10817.0,28.6214,77.2064,Kendriya Terminal (Pt. Pant Marg),PTU‐04‐012,28.6217406,77.2060852,48.769832969740975,PTU at Pt. Pant Marg near BQS in front of Bunglow No.‐15
20105.0,28.6215,77.1943,Dr. S.P.M. Stadium,PTU‐10‐003,28.62161,77.19462,33.54385690898542,PTU at Kautilya Marg
1286.0,28.62155,77.2062166666667,Kendriya Terminal (Pt. Pant Marg),PTU‐04‐012,28.6217406,77.2060852,24.77574561982709,PTU at Pt. Pant Marg near BQS in front of Bunglow No.‐15
11194.0,28.62155,77.2062166666667,Kendriya Terminal (Pt. Pant Marg),PTU‐04‐012,28.6217406,77.2060852,24.77574561982709,PTU at Pt. Pant Marg near BQS in front of Bunglow No.‐15
1555.0,28.6217029,77.1947336,Talkatora Stadium Garden,PTU‐10‐003,28.62161,77.19462,15.154424573020764,PTU at Kautilya Marg
11438.0,28.6217029,77.1947336,Talkatora Stadium Garden,PTU‐10‐003,28.62161,77.19462,15.154424573020764,PTU at Kautilya Marg
2980.0,28.621839,77.237718,Supreme Court,PTU‐14‐001,28.61971,77.24007,329.7683387409905,PTU at Bhagwan Dass Road
12660.0,28.621839,77.237718,Supreme Court,PTU‐14‐001,28.61971,77.24007,329.7683387409905,PTU at Bhagwan Dass Road
1446.0,28.6219,77.2258,Bhartiya Vidya Bhawan,PTU‐05‐021,28.61806,77.22679,437.7865390873757,PTU at Jashwant Singh Lane behind Hyderabad House
11334.0,28.6219,77.2258,Bhartiya Vidya Bhawan,PTU‐05‐021,28.61806,77.22679,437.7865390873757,PTU at Jashwant Singh Lane behind Hyderabad House
15086.0,28.622016,77.2085375,PATEL CHOWK,PTU‐04‐001,28.62307,77.20947,148.39125864663345,PTU at Sansad marg near Aakasvani Bhawan
875.0,28.6222,77.2031,Talkatora Road,PTU‐04‐024,28.62235,77.20116,190.0898751942595,PTU at North Avenue Market
10819.0,28.6222,77.2031,Talkatora Road,PTU‐04‐024,28.62235,77.20116,190.0898751942595,PTU at North Avenue Market
3391.0,28.622218,77.219112,Eastern Court,PTU‐01‐037,28.6214,77.21926,92.09744742589793,"PTU near Ashoka  Taxi Service, Janpath."
12974.0,28.622218,77.219112,Eastern Court,PTU‐01‐037,28.6214,77.21926,92.09744742589793,"PTU near Ashoka  Taxi Service, Janpath."
4378.0,28.622246,77.214617,Patel Chowk,PTU‐04‐004,28.62133,77.21493,106.33773112521048,PTU at Janpath Lane Near Aditya Sadan
14527.0,28.62228,77.2406,supreme court metro station,PTU‐14‐001,28.61971,77.24007,290.4156554035182,PTU at Bhagwan Dass Road
3503.0,28.622306,77.235589,Aaga Khan Hall,CTU‐05‐002,28.62046,77.23468,223.6206784791998,CTU at JJ Camp Sangli Mess Lane
13062.0,28.622306,77.235589,Aaga Khan Hall,CTU‐05‐002,28.62046,77.23468,223.6206784791998,CTU at JJ Camp Sangli Mess Lane
876.0,28.6223961,77.1965567,Dr. RML Hospital,PTU‐04‐020,28.6234,77.19788,170.7154337019545,PTU  at Mother Teresa  Crescent Corner.
10820.0,28.6223961,77.1965567,Dr. RML Hospital,PTU‐04‐020,28.6234,77.19788,170.7154337019545,PTU  at Mother Teresa  Crescent Corner.
4848.0,28.622433,77.23515,Aaga Khan Hall,CTU‐05‐002,28.62046,77.23468,224.13270817329604,CTU at JJ Camp Sangli Mess Lane
2586.0,28.622475,77.240606,Supreme Court / Pragati Maidan Metro Station,PTU‐14‐001,28.61971,77.24007,311.873510942784,PTU at Bhagwan Dass Road
12334.0,28.622475,77.240606,Supreme Court / Pragati Maidan Metro Station,PTU‐14‐001,28.61971,77.24007,311.873510942784,PTU at Bhagwan Dass Road
15445.0,28.62255169,77.19661606,North Avenue,PTU‐04‐020,28.6234,77.19788,155.29775140266068,PTU  at Mother Teresa  Crescent Corner.
1670.0,28.6226,77.1966,Dr. RML Hospital,PTU‐04‐020,28.6234,77.19788,153.36898144036286,PTU  at Mother Teresa  Crescent Corner.
11537.0,28.6226,77.1966,Dr. RML Hospital,PTU‐04‐020,28.6234,77.19788,153.36898144036286,PTU  at Mother Teresa  Crescent Corner.
1284.0,28.6226,77.2028,Talkatora Road,PTU‐04‐024,28.62235,77.20116,162.47029176887264,PTU at North Avenue Market
11192.0,28.6226,77.2028,Talkatora Road,PTU‐04‐024,28.62235,77.20116,162.47029176887264,PTU at North Avenue Market
351.0,28.622967,77.240488,Supreme Court,PTU‐05‐006,28.62554,77.24016,287.89013479436926,PTU at college Lane near Tilak Bridge railway station
10325.0,28.622967,77.240488,Supreme Court,PTU‐05‐006,28.62554,77.24016,287.89013479436926,PTU at college Lane near Tilak Bridge railway station
15391.0,28.62308144,77.21344228,Patel Chowk Metro Station,PTU‐01‐042,28.62289,77.21359,25.7105354746696,PTU at  Ashoka Road  adjacent  to Post office Building
1447.0,28.6232,77.2251,Max Muller Bhawan,PTU‐05‐018,28.6250821,77.2216173,399.1858618024088,PTU at Atul Grove Road Opp. Kothi No T‐22
11335.0,28.6232,77.2251,Max Muller Bhawan,PTU‐05‐018,28.6250821,77.2216173,399.1858618024088,PTU at Atul Grove Road Opp. Kothi No T‐22
138.0,28.623228,77.226725,Kasturba Gandhi Road Crossing,PTU‐05‐014,28.61966325,77.23006935,513.4951962083336,PTU at Faridkot House Lane (PTU No.‐ I )
10125.0,28.623228,77.226725,Kasturba Gandhi Road Crossing,PTU‐05‐014,28.61966325,77.23006935,513.4951962083336,PTU at Faridkot House Lane (PTU No.‐ I )
1676.0,28.6234,77.2266,Kasturba Gandhi Crossing,PTU‐05‐014,28.61966325,77.23006935,536.0218043711177,PTU at Faridkot House Lane (PTU No.‐ I )
11543.0,28.6234,77.2266,Kasturba Gandhi Crossing,PTU‐05‐014,28.61966325,77.23006935,536.0218043711177,PTU at Faridkot House Lane (PTU No.‐ I )
14201.0,28.6234135,77.2031085,RML Hospital,PTU‐03‐005,28.62512,77.20219,209.86600989443969,PTU at Baba Kharak Singh Marg near RML Hospital gate No. 4
352.0,28.623433,77.240567,Pragati Maidan Metro Station,PTU‐05‐006,28.62554,77.24016,237.63166717889504,PTU at college Lane near Tilak Bridge railway station
10326.0,28.623433,77.240567,Pragati Maidan Metro Station,PTU‐05‐006,28.62554,77.24016,237.63166717889504,PTU at college Lane near Tilak Bridge railway station
2256.0,28.6235,77.2065,NDPO,PTU‐04‐011,28.6252814,77.206385,198.4004112942876,PTU at Pt. Pant  Marg near BQS
12044.0,28.6235,77.2065,NDPO,PTU‐04‐011,28.6252814,77.206385,198.4004112942876,PTU at Pt. Pant  Marg near BQS
15344.0,28.623640015945806,77.21624844352971,KEND. TERMINAL,PTU‐01‐032,28.62461918,77.21571366,120.74356905430294,PTU at Jantar Mantar road opp. Kothi no.‐5.
14652.0,28.623655,77.21905,Western Court,PTU(Petrol Pump 33),28.6246303,77.2186122,116.56341443675704,35  Janpath Rd  Janpath  Connaught Place  New Delhi  Delhi 110001  India
20168.0,28.6237,77.2065,Pt. Pant Marg,PTU‐04‐011,28.6252814,77.206385,176.20153653444365,PTU at Pt. Pant  Marg near BQS
2814.0,28.623715,77.239316,Tilak Bridge,PTU‐05‐006,28.62554,77.24016,219.013776618287,PTU at college Lane near Tilak Bridge railway station
12522.0,28.623715,77.239316,Tilak Bridge,PTU‐05‐006,28.62554,77.24016,219.013776618287,PTU at college Lane near Tilak Bridge railway station
14747.0,28.62373527,77.21295305,air,PTU‐01‐042,28.62289,77.21359,112.69056840870849,PTU at  Ashoka Road  adjacent  to Post office Building
20056.0,28.623746,77.218971,Western Court,PTU(Petrol Pump 33),28.6246303,77.2186122,104.37991481685896,35  Janpath Rd  Janpath  Connaught Place  New Delhi  Delhi 110001  India
1031.0,28.623775,77.219113,Western Court,PTU(Petrol Pump 33),28.6246303,77.2186122,106.93112123307814,35  Janpath Rd  Janpath  Connaught Place  New Delhi  Delhi 110001  India
10964.0,28.623775,77.219113,Western Court,PTU(Petrol Pump 33),28.6246303,77.2186122,106.93112123307814,35  Janpath Rd  Janpath  Connaught Place  New Delhi  Delhi 110001  India
14546.0,28.62388300000001,77.240933,Supreme Court / Pragati Maidan Metro Station,PTU‐05‐006,28.62554,77.24016,199.0991659760657,PTU at college Lane near Tilak Bridge railway station
4226.0,28.623917,77.24095,Supreme Court,PTU‐05‐006,28.62554,77.24016,196.2517238811119,PTU at college Lane near Tilak Bridge railway station
2981.0,28.624049,77.239332,Tilak Bridge,PTU‐05‐006,28.62554,77.24016,184.4400672201628,PTU at college Lane near Tilak Bridge railway station
12661.0,28.624049,77.239332,Tilak Bridge,PTU‐05‐006,28.62554,77.24016,184.4400672201628,PTU at college Lane near Tilak Bridge railway station
443.0,28.624078,77.247687,IP Power House (ITO Ring Road),PTU‐05‐006,28.62554,77.24016,752.4382384877385,PTU at college Lane near Tilak Bridge railway station
10408.0,28.624078,77.247687,IP Power House (ITO Ring Road),PTU‐05‐006,28.62554,77.24016,752.4382384877385,PTU at college Lane near Tilak Bridge railway station
15392.0,28.624230105,77.222562865,Ashok Road,PTU‐05‐018,28.6250821,77.2216173,132.26062158016927,PTU at Atul Grove Road Opp. Kothi No T‐22
1672.0,28.6244,77.2112,Patel Chowk,PTU‐01‐029,28.62544635,77.21168272,125.5265358301905,PTU at Jai Singh Road towards YWCA Building
11539.0,28.6244,77.2112,Patel Chowk,PTU‐01‐029,28.62544635,77.21168272,125.5265358301905,PTU at Jai Singh Road towards YWCA Building
5072.0,28.624491,77.247156,IP Power Station / ITO Ring Road,PTU‐05‐006,28.62554,77.24016,692.728592092427,PTU at college Lane near Tilak Bridge railway station
13959.0,28.624491,77.247156,IP Power Station / ITO Ring Road,PTU‐05‐006,28.62554,77.24016,692.728592092427,PTU at college Lane near Tilak Bridge railway station
20291.0,28.6245,77.2245,Atul Grove Marg,PTU‐05‐018,28.6250821,77.2216173,288.7127280225672,PTU at Atul Grove Road Opp. Kothi No T‐22
1778.0,28.6245,77.2246,Max Mueller Bhawan,PTU‐05‐018,28.6250821,77.2216173,298.23272940516154,PTU at Atul Grove Road Opp. Kothi No T‐22
11633.0,28.6245,77.2246,Max Mueller Bhawan,PTU‐05‐018,28.6250821,77.2216173,298.23272940516154,PTU at Atul Grove Road Opp. Kothi No T‐22
1671.0,28.624508,77.197924,RML Hospital,PTU‐04‐020,28.6234,77.19788,123.27880649295712,PTU  at Mother Teresa  Crescent Corner.
11538.0,28.624508,77.197924,RML Hospital,PTU‐04‐020,28.6234,77.19788,123.27880649295712,PTU  at Mother Teresa  Crescent Corner.
4027.0,28.62452,77.201435,Dr RML Hospital (Kharak Singh Marg),PTU‐03‐005,28.62512,77.20219,99.40593182558062,PTU at Baba Kharak Singh Marg near RML Hospital gate No. 4
13415.0,28.62452,77.201435,Dr RML Hospital (Kharak Singh Marg),PTU‐03‐005,28.62512,77.20219,99.40593182558062,PTU at Baba Kharak Singh Marg near RML Hospital gate No. 4
2254.0,28.624548,77.210633,Patel Chowk (Ashoka Road),PTU‐01‐029,28.62544635,77.21168272,143.0937419785993,PTU at Jai Singh Road towards YWCA Building
12042.0,28.624548,77.210633,Patel Chowk (Ashoka Road),PTU‐01‐029,28.62544635,77.21168272,143.0937419785993,PTU at Jai Singh Road towards YWCA Building
1113.0,28.624567,77.247083,IP Power House (ITO Ring Road),PTU‐05‐006,28.62554,77.24016,684.3191713238859,PTU at college Lane near Tilak Bridge railway station
11043.0,28.624567,77.247083,IP Power House (ITO Ring Road),PTU‐05‐006,28.62554,77.24016,684.3191713238859,PTU at college Lane near Tilak Bridge railway station
4849.0,28.624767,77.232717,Mandi House,PTU‐05‐011,28.62494,77.232,72.57793613390338,"PTU at Copernicus Marg, Mandi House"
3502.0,28.6248,77.233,Mandi House,PTU‐05‐011,28.62494,77.232,98.83778860149089,"PTU at Copernicus Marg, Mandi House"
13061.0,28.6248,77.233,Mandi House,PTU‐05‐011,28.62494,77.232,98.83778860149089,"PTU at Copernicus Marg, Mandi House"
2578.0,28.624991,77.230118,Mandi House,PTU‐05‐008,28.62615,77.2316,193.7315038408219,"PTU at FICCI Auditorium, Mandi House"
12330.0,28.624991,77.230118,Mandi House,PTU‐05‐008,28.62615,77.2316,193.7315038408219,"PTU at FICCI Auditorium, Mandi House"
137.0,28.625035,77.230571,Mandi House,PTU‐05‐011,28.62494,77.232,139.87561152780995,"PTU at Copernicus Marg, Mandi House"
10124.0,28.625035,77.230571,Mandi House,PTU‐05‐011,28.62494,77.232,139.87561152780995,"PTU at Copernicus Marg, Mandi House"
1283.0,28.62505,77.198717,RML Hospital,PTU‐03‐018,28.62471,77.19946,81.78291838781728,PTU near Gate No 7 RML Hospital at  Sheik Mujibur Rahman Road
11191.0,28.62505,77.198717,RML Hospital,PTU‐03‐018,28.62471,77.19946,81.78291838781728,PTU near Gate No 7 RML Hospital at  Sheik Mujibur Rahman Road
20048.0,28.625216,77.21398,PS Parliament / Jantar Mantar,PTU‐01‐025,28.62544,77.2143726,45.7028900178096,PTU  at Sansad Marg near church
135.0,28.6253,77.2387,Tilak Bridge,PTU‐05‐007,28.6261832,77.23897252,101.74568644191912,PTU  at college Lane Opp. Railway Qtrs. near Tilak Bridge railway station
10122.0,28.6253,77.2387,Tilak Bridge,PTU‐05‐007,28.6261832,77.23897252,101.74568644191912,PTU  at college Lane Opp. Railway Qtrs. near Tilak Bridge railway station
2255.0,28.625333,77.209333,Gurudwara Bangla Sahib,PTU‐01‐043,28.62557,77.20928,26.85611396700772,PTU near Gurudwara Dustbin Ashoka Road
12043.0,28.625333,77.209333,Gurudwara Bangla Sahib,PTU‐01‐043,28.62557,77.20928,26.85611396700772,PTU near Gurudwara Dustbin Ashoka Road
1556.0,28.625367,77.209583,Gurudwara Bangla Sahib,PTU‐01‐043,28.62557,77.20928,37.2039732428759,PTU near Gurudwara Dustbin Ashoka Road
11439.0,28.625367,77.209583,Gurudwara Bangla Sahib,PTU‐01‐043,28.62557,77.20928,37.2039732428759,PTU near Gurudwara Dustbin Ashoka Road
14901.0,28.62537877,77.23168345,Ashok Road,PTU‐05‐011,28.62494,77.232,57.74911553449874,"PTU at Copernicus Marg, Mandi House"
20269.0,28.6254,77.2095,YMCA,PTU‐01‐043,28.62557,77.20928,28.607850227355204,PTU near Gurudwara Dustbin Ashoka Road
1294.0,28.6255,77.2397,Tilak Bridge,PTU‐05‐006,28.62554,77.24016,45.1173992295596,PTU at college Lane near Tilak Bridge railway station
11202.0,28.6255,77.2397,Tilak Bridge,PTU‐05‐006,28.62554,77.24016,45.1173992295596,PTU at college Lane near Tilak Bridge railway station
832.0,28.625507,77.21432,P S Parliament / Jantar Mantar,PTU‐01‐025,28.62544,77.2143726,9.047696908688716,PTU  at Sansad Marg near church
10777.0,28.625507,77.21432,P S Parliament / Jantar Mantar,PTU‐01‐025,28.62544,77.2143726,9.047696908688716,PTU  at Sansad Marg near church
15248.0,28.625547,77.2135545,PS Parliament Street,PTU‐01‐025,28.62544,77.2143726,80.73101732741006,PTU  at Sansad Marg near church
15819.0,28.6255897883104,77.206625733226,NDPO,PTU‐04‐011,28.6252814,77.206385,41.56885627004189,PTU at Pt. Pant  Marg near BQS
1287.0,28.6256,77.2064,NDPO,PTU‐04‐011,28.6252814,77.206385,35.45694268413121,PTU at Pt. Pant  Marg near BQS
11195.0,28.6256,77.2064,NDPO,PTU‐04‐011,28.6252814,77.206385,35.45694268413121,PTU at Pt. Pant  Marg near BQS
20167.0,28.625607,77.214431,PS Parliament / Jantar Mantar,PTU‐01‐025,28.62544,77.2143726,19.424696043398928,PTU  at Sansad Marg near church
14014.0,28.625607,77.214431,PS Parliament / Jantar Mantar,PTU‐01‐025,28.62544,77.2143726,19.424696043398928,PTU  at Sansad Marg near church
136.0,28.625633,77.234,Mandi House,PTU‐05‐010,28.6257416,77.2346929,68.69903509093011,PTU at Sikandra Road near Metro Station
10123.0,28.625633,77.234,Mandi House,PTU‐05‐010,28.6257416,77.2346929,68.69903509093011,PTU at Sikandra Road near Metro Station
15145.0,28.62569923,77.21442404,Ps Parliamt S,PTU‐01‐025,28.62544,77.2143726,29.25904639635788,PTU  at Sansad Marg near church
14855.0,28.625767,77.23433299999998,Mandi House,PTU‐05‐010,28.6257416,77.2346929,35.24079395917763,PTU at Sikandra Road near Metro Station
4939.0,28.6258,77.2342,Mandi house,PTU‐05‐010,28.6257416,77.2346929,48.544959522645286,PTU at Sikandra Road near Metro Station
13892.0,28.6258,77.2342,Mandi house,PTU‐05‐010,28.6257416,77.2346929,48.544959522645286,PTU at Sikandra Road near Metro Station
1293.0,28.6258,77.2343,Mandi House,PTU‐05‐010,28.6257416,77.2346929,38.89426935116165,PTU at Sikandra Road near Metro Station
11201.0,28.6258,77.2343,Mandi House,PTU‐05‐010,28.6257416,77.2346929,38.89426935116165,PTU at Sikandra Road near Metro Station
2395.0,28.625816,77.214389,PS Parliament / Jantar Mantar,PTU‐01‐025,28.62544,77.2143726,41.83992305497791,PTU  at Sansad Marg near church
12175.0,28.625816,77.214389,PS Parliament / Jantar Mantar,PTU‐01‐025,28.62544,77.2143726,41.83992305497791,PTU  at Sansad Marg near church
15093.0,28.625928333333302,77.2162216666667,Jantar Mantar,PTU‐01‐031,28.62586,77.21599,23.853932582608845,PTU at   Jantar Mantar Road
4026.0,28.626081,77.204986,NDPO (Kharak Singh Marg),PTU‐04‐010,28.62629,77.20622,122.66360677708468,PTU at Gole Dak Khana toward Pt. Pant marg.
13414.0,28.626081,77.204986,NDPO (Kharak Singh Marg),PTU‐04‐010,28.62629,77.20622,122.66360677708468,PTU at Gole Dak Khana toward Pt. Pant marg.
3086.0,28.6261,77.2207,Tolstoy Marg,PTU(Petrol Pump 32),28.6264864,77.219639,112.11609999970165,40  Tolstoy Rd  Atul Grove Road  Janpath  Connaught Place  New Delhi  Delhi 110001  India
12748.0,28.6261,77.2207,Tolstoy Marg,PTU(Petrol Pump 32),28.6264864,77.219639,112.11609999970165,40  Tolstoy Rd  Atul Grove Road  Janpath  Connaught Place  New Delhi  Delhi 110001  India
5044.0,28.626173,77.221487,Tolstoy Marg,PTU‐05‐017,28.6272,77.22149,114.19756504930642,PTU Behind Vandana Bldg. Tolstoy Lane
13944.0,28.626173,77.221487,Tolstoy Marg,PTU‐05‐017,28.6272,77.22149,114.19756504930642,PTU Behind Vandana Bldg. Tolstoy Lane
3481.0,28.626217,77.196417,Talkatora Stadium,CTU‐04‐005,28.62532,77.19656,100.71366310046504,CTU at Park Lane Jhuggi
13042.0,28.626217,77.196417,Talkatora Stadium,CTU‐04‐005,28.62532,77.19656,100.71366310046504,CTU at Park Lane Jhuggi
1282.0,28.6263,77.1965,Talkatora Stadium,CTU‐04‐005,28.62532,77.19656,109.12827313840138,CTU at Park Lane Jhuggi
11190.0,28.6263,77.1965,Talkatora Stadium,CTU‐04‐005,28.62532,77.19656,109.12827313840138,CTU at Park Lane Jhuggi
1557.0,28.626357,77.212675,YMCA / Palika Kendra,PTU‐01‐028,28.62635,77.21306,37.58512305742979,PTU at Jai Singh Road  Opp.  State  Bank of India
11440.0,28.626357,77.212675,YMCA / Palika Kendra,PTU‐01‐028,28.62635,77.21306,37.58512305742979,PTU at Jai Singh Road  Opp.  State  Bank of India
1851.0,28.626394,77.246675,ITO Ring Road,PTU‐05‐006,28.62554,77.24016,642.9357349606679,PTU at college Lane near Tilak Bridge railway station
11704.0,28.626394,77.246675,ITO Ring Road,PTU‐05‐006,28.62554,77.24016,642.9357349606679,PTU at college Lane near Tilak Bridge railway station
3137.0,28.626434,77.220328,Tolstoy Marg,PTU(Petrol Pump 32),28.6264864,77.219639,67.50017986471494,40  Tolstoy Rd  Atul Grove Road  Janpath  Connaught Place  New Delhi  Delhi 110001  India
12783.0,28.626434,77.220328,Tolstoy Marg,PTU(Petrol Pump 32),28.6264864,77.219639,67.50017986471494,40  Tolstoy Rd  Atul Grove Road  Janpath  Connaught Place  New Delhi  Delhi 110001  India
4465.0,28.626617,77.213583,Palika Kendra Terminal,PTU‐01‐028,28.62635,77.21306,59.05211189742536,PTU at Jai Singh Road  Opp.  State  Bank of India
3136.0,28.626694,77.215909,Jantar Mantar (Tolstoy Marg),PTU‐01‐031,28.62586,77.21599,93.07294630354326,PTU at   Jantar Mantar Road
12782.0,28.626694,77.215909,Jantar Mantar (Tolstoy Marg),PTU‐01‐031,28.62586,77.21599,93.07294630354326,PTU at   Jantar Mantar Road
14314.0,28.6271966666667,77.2147666666667,Regal,PTU‐01‐025,28.62544,77.2143726,199.08310007455916,PTU  at Sansad Marg near church
14938.0,28.6273983333333,77.24423,Govt Press,PTU‐05‐006,28.62554,77.24016,447.77314107369705,PTU at college Lane near Tilak Bridge railway station
15082.0,28.6275665,77.197325,BIRLA MANDIR,PTU‐03‐016,28.62823,77.19814,108.49234204101268,PTU at Udyan Marg near Sabzi Market
15094.0,28.62766602,77.21580759999998,Palika Kender,PTU‐01‐031,28.62586,77.21599,201.60781878365967,PTU at   Jantar Mantar Road
1292.0,28.6278,77.2285,Modern School,PTU‐05‐004,28.63031,77.22951,295.9960765223827,"PTU at Municipal Market, Babar Road"
11200.0,28.6278,77.2285,Modern School,PTU‐05‐004,28.63031,77.22951,295.9960765223827,"PTU at Municipal Market, Babar Road"
4587.0,28.627817,77.240083,ITO (DDU Marg),PTU‐05‐007,28.6261832,77.23897252,211.5453822163056,PTU  at college Lane Opp. Railway Qtrs. near Tilak Bridge railway station
13746.0,28.627817,77.240083,ITO (DDU Marg),PTU‐05‐007,28.6261832,77.23897252,211.5453822163056,PTU  at college Lane Opp. Railway Qtrs. near Tilak Bridge railway station
2340.0,28.627831,77.227939,Modern School,PTU‐12‐016,28.62921,77.22613,233.85000840750735,PTU opp. Hyatt Hotel Ring Road
12124.0,28.627831,77.227939,Modern School,PTU‐12‐016,28.62921,77.22613,233.85000840750735,PTU opp. Hyatt Hotel Ring Road
15712.0,28.6278358238845,77.2433662371116,ITO AGCR,PTU‐05‐006,28.62554,77.24016,403.8554394123073,PTU at college Lane near Tilak Bridge railway station
3138.0,28.62791,77.22543,Tolstoy Marg Barakhamba Crossing,PTU‐12‐016,28.62921,77.22613,159.8855118910313,PTU opp. Hyatt Hotel Ring Road
12784.0,28.62791,77.22543,Tolstoy Marg Barakhamba Crossing,PTU‐12‐016,28.62921,77.22613,159.8855118910313,PTU opp. Hyatt Hotel Ring Road
134.0,28.627967,77.244433,ITO,PTU‐05‐006,28.62554,77.24016,496.7542039933758,PTU at college Lane near Tilak Bridge railway station
10121.0,28.627967,77.244433,ITO,PTU‐05‐006,28.62554,77.24016,496.7542039933758,PTU at college Lane near Tilak Bridge railway station
3066.0,28.627983,77.244433,ITO,PTU‐05‐006,28.62554,77.24016,497.7229549069978,PTU at college Lane near Tilak Bridge railway station
12730.0,28.627983,77.244433,ITO,PTU‐05‐006,28.62554,77.24016,497.7229549069978,PTU at college Lane near Tilak Bridge railway station
15293.0,28.62806373,77.21933839,Janpath Market,PTU‐01‐033,28.62722,77.21906,97.67389398876526,"PTU near Annapoorna Bakery, Janpath Lane"
15747.0,28.6280900890344,77.2448047391229,ITO AGCR,PTU‐05‐006,28.62554,77.24016,534.7142377134012,PTU at college Lane near Tilak Bridge railway station
3920.0,28.628133,77.2094,Gurudwara Bangla Sahib,PTU(Petrol Pump 28),28.6288828,77.2103394,123.92565010622124,10  Block 62 Type 2 Diz Rd  DIZ Staff Quarters  Connaught Place  New Delhi  Delhi 110001  India
13334.0,28.628133,77.2094,Gurudwara Bangla Sahib,PTU(Petrol Pump 28),28.6288828,77.2103394,123.92565010622124,10  Block 62 Type 2 Diz Rd  DIZ Staff Quarters  Connaught Place  New Delhi  Delhi 110001  India
15220.0,28.62815825,77.24079175,i.t.o.,PTU‐05‐007,28.6261832,77.23897252,282.4158486635671,PTU  at college Lane Opp. Railway Qtrs. near Tilak Bridge railway station
1295.0,28.628183,77.24515,ITO,PTU‐05‐006,28.62554,77.24016,568.8354446184643,PTU at college Lane near Tilak Bridge railway station
11203.0,28.628183,77.24515,ITO,PTU‐05‐006,28.62554,77.24016,568.8354446184643,PTU at college Lane near Tilak Bridge railway station
4296.0,28.628217,77.24505,ITO,PTU‐05‐006,28.62554,77.24016,562.4928923684857,PTU at college Lane near Tilak Bridge railway station
13594.0,28.628217,77.24505,ITO,PTU‐05‐006,28.62554,77.24016,562.4928923684857,PTU at college Lane near Tilak Bridge railway station
1288.0,28.628391,77.209583,Gurudwara Bangla Sahib,PTU(Petrol Pump 28),28.6288828,77.2103394,91.87312178364294,10  Block 62 Type 2 Diz Rd  DIZ Staff Quarters  Connaught Place  New Delhi  Delhi 110001  India
11196.0,28.628391,77.209583,Gurudwara Bangla Sahib,PTU(Petrol Pump 28),28.6288828,77.2103394,91.87312178364294,10  Block 62 Type 2 Diz Rd  DIZ Staff Quarters  Connaught Place  New Delhi  Delhi 110001  India
15163.0,28.6284,77.2097,Gurudwara Bangla Sahib,PTU(Petrol Pump 28),28.6288828,77.2103394,82.31985804396334,10  Block 62 Type 2 Diz Rd  DIZ Staff Quarters  Connaught Place  New Delhi  Delhi 110001  India
1032.0,28.62853,77.219448,Indian Oil Bhawan,PTU‐05‐016,28.62845,77.22055,107.9232871493058,PTU in cannaught lane behind Schindhia House
10965.0,28.62853,77.219448,Indian Oil Bhawan,PTU‐05‐016,28.62845,77.22055,107.9232871493058,PTU in cannaught lane behind Schindhia House
831.0,28.628567,77.216783,Palika Kendra,PTU‐01‐024,28.62915844,77.21746632,93.66385637929469,PTU at Sansad marg  behind Jeevan Bharti Building.
10776.0,28.628567,77.216783,Palika Kendra,PTU‐01‐024,28.62915844,77.21746632,93.66385637929469,PTU at Sansad marg  behind Jeevan Bharti Building.
4267.0,28.628629,77.216744,Palika Kendra,PTU‐01‐024,28.62915844,77.21746632,91.84698688806874,PTU at Sansad marg  behind Jeevan Bharti Building.
13581.0,28.628629,77.216744,Palika Kendra,PTU‐01‐024,28.62915844,77.21746632,91.84698688806874,PTU at Sansad marg  behind Jeevan Bharti Building.
14357.0,28.62863552,77.21658291,Regal,PTU‐01‐024,28.62915844,77.21746632,103.99544454757984,PTU at Sansad marg  behind Jeevan Bharti Building.
1448.0,28.6287,77.2219,Scindia House,PTU(Petrol Pump 31),28.6296673,77.2213743,119.1698677204276,Amrit Chamber  India Connaught Ln  Atul Grove Road  Janpath  Connaught Place  New Delhi  Delhi 110001  India
11336.0,28.6287,77.2219,Scindia House,PTU(Petrol Pump 31),28.6296673,77.2213743,119.1698677204276,Amrit Chamber  India Connaught Ln  Atul Grove Road  Janpath  Connaught Place  New Delhi  Delhi 110001  India
1558.0,28.628746,77.216568,Palika Kendra,PTU‐01‐024,28.62915844,77.21746632,98.94641778131638,PTU at Sansad marg  behind Jeevan Bharti Building.
11441.0,28.628746,77.216568,Palika Kendra,PTU‐01‐024,28.62915844,77.21746632,98.94641778131638,PTU at Sansad marg  behind Jeevan Bharti Building.
4181.0,28.62875,77.216567,Palika Kendra,PTU‐01‐024,28.62915844,77.21746632,98.82772303915186,PTU at Sansad marg  behind Jeevan Bharti Building.
4972.0,28.628883,77.221933,Scindia House,PTU(Petrol Pump 31),28.6296673,77.2213743,102.85447590551712,Amrit Chamber  India Connaught Ln  Atul Grove Road  Janpath  Connaught Place  New Delhi  Delhi 110001  India
15528.0,28.62892255294609,77.20514953136446,Gole Market (Sahitya Sadan),PTU‐03‐012,28.6281828,77.2049434,84.6813660896285,PTU at Bhai Veer Singh Marg near  T‐ Junction Kali Bari Marg
2016.0,28.62895,77.205306,Gole Market (Sahitya Sadan),PTU‐03‐012,28.6281828,77.2049434,92.35819167202558,PTU at Bhai Veer Singh Marg near  T‐ Junction Kali Bari Marg
11849.0,28.62895,77.205306,Gole Market (Sahitya Sadan),PTU‐03‐012,28.6281828,77.2049434,92.35819167202558,PTU at Bhai Veer Singh Marg near  T‐ Junction Kali Bari Marg
16031.0,28.6289611779342,77.2051292986774,Gole Market (St. Columbas School),PTU‐03‐012,28.6281828,77.2049434,88.43297908202787,PTU at Bhai Veer Singh Marg near  T‐ Junction Kali Bari Marg
14548.0,28.62900259861985,77.21703976392747,Regal,PTU‐01‐024,28.62915844,77.21746632,45.094424016582174,PTU at Sansad marg  behind Jeevan Bharti Building.
353.0,28.629065,77.241192,ITO (Agarwal Chowk),PTU‐05‐007,28.6261832,77.23897252,386.79330783917175,PTU  at college Lane Opp. Railway Qtrs. near Tilak Bridge railway station
10327.0,28.629065,77.241192,ITO (Agarwal Chowk),PTU‐05‐007,28.6261832,77.23897252,386.79330783917175,PTU  at college Lane Opp. Railway Qtrs. near Tilak Bridge railway station
4072.0,28.629071,77.237739,Bal Bhawan DDU Marg,PTU‐05‐007,28.6261832,77.23897252,342.9364326257536,PTU  at college Lane Opp. Railway Qtrs. near Tilak Bridge railway station
13447.0,28.629071,77.237739,Bal Bhawan DDU Marg,PTU‐05‐007,28.6261832,77.23897252,342.9364326257536,PTU  at college Lane Opp. Railway Qtrs. near Tilak Bridge railway station
15818.0,28.6291306862852,77.2053222642035,St. Colambas School,PTU‐03‐012,28.6281828,77.2049434,111.69833225804722,PTU at Bhai Veer Singh Marg near  T‐ Junction Kali Bari Marg
14096.0,28.62914856410315,77.21687883138657,Regal,PTU‐01‐024,28.62915844,77.21746632,57.34949525752419,PTU at Sansad marg  behind Jeevan Bharti Building.
15162.0,28.62915,77.22183299999998,Scindia House / Kailash Bhawan,PTU(Petrol Pump 31),28.6296673,77.2213743,72.88999800512615,Amrit Chamber  India Connaught Ln  Atul Grove Road  Janpath  Connaught Place  New Delhi  Delhi 110001  India
14424.0,28.62916776,77.220891455,Super Bazar Conn. Place,PTU(Petrol Pump 31),28.6296673,77.2213743,72.84379077798818,Amrit Chamber  India Connaught Ln  Atul Grove Road  Janpath  Connaught Place  New Delhi  Delhi 110001  India
20046.0,28.6292,77.2219,Scindia House,PTU(Petrol Pump 31),28.6296673,77.2213743,73.02413327953693,Amrit Chamber  India Connaught Ln  Atul Grove Road  Janpath  Connaught Place  New Delhi  Delhi 110001  India
2449.0,28.629204,77.241471,ITO,PTU‐05‐006,28.62554,77.24016,427.0390271683438,PTU at college Lane near Tilak Bridge railway station
12219.0,28.629204,77.241471,ITO,PTU‐05‐006,28.62554,77.24016,427.0390271683438,PTU at college Lane near Tilak Bridge railway station
1777.0,28.62921,77.221797,Kailash Bhawan,PTU(Petrol Pump 31),28.6296673,77.2213743,65.48037623686322,Amrit Chamber  India Connaught Ln  Atul Grove Road  Janpath  Connaught Place  New Delhi  Delhi 110001  India
11632.0,28.62921,77.221797,Kailash Bhawan,PTU(Petrol Pump 31),28.6296673,77.2213743,65.48037623686322,Amrit Chamber  India Connaught Ln  Atul Grove Road  Janpath  Connaught Place  New Delhi  Delhi 110001  India
4023.0,28.629258,77.237815,Bal Bhawan DDU Marg,PTU‐05‐007,28.6261832,77.23897252,360.08414357469064,PTU  at college Lane Opp. Railway Qtrs. near Tilak Bridge railway station
13412.0,28.629258,77.237815,Bal Bhawan DDU Marg,PTU‐05‐007,28.6261832,77.23897252,360.08414357469064,PTU  at college Lane Opp. Railway Qtrs. near Tilak Bridge railway station
2341.0,28.6294,77.2253,Barakhamba Metro Station,PTU‐12‐016,28.62921,77.22613,83.7176789547839,PTU opp. Hyatt Hotel Ring Road
12125.0,28.6294,77.2253,Barakhamba Metro Station,PTU‐12‐016,28.62921,77.22613,83.7176789547839,PTU opp. Hyatt Hotel Ring Road
1679.0,28.629567,77.247833,ITO Ring Road,PTU‐05‐006,28.62554,77.24016,872.5571774077893,PTU at college Lane near Tilak Bridge railway station
11546.0,28.629567,77.247833,ITO Ring Road,PTU‐05‐006,28.62554,77.24016,872.5571774077893,PTU at college Lane near Tilak Bridge railway station
1291.0,28.6297,77.2252,Barakhamba Metro Station,PTU‐12‐016,28.62921,77.22613,105.8653866692146,PTU opp. Hyatt Hotel Ring Road
11199.0,28.6297,77.2252,Barakhamba Metro Station,PTU‐12‐016,28.62921,77.22613,105.8653866692146,PTU opp. Hyatt Hotel Ring Road
3919.0,28.630267,77.214133,Hanuman Mandir / Shivaji Stadium,PTU(Petrol Pump 39),28.6292531,77.2124729,197.38935120220077,85  Baba Kharak Singh Marg  Block P  Connaught Place  New Delhi  Delhi 110001  India
13333.0,28.630267,77.214133,Hanuman Mandir / Shivaji Stadium,PTU(Petrol Pump 39),28.6292531,77.2124729,197.38935120220077,85  Baba Kharak Singh Marg  Block P  Connaught Place  New Delhi  Delhi 110001  India
2342.0,28.6303,77.2239,Statesman House,PTU‐05‐001,28.63092,77.22351,78.75070756645788,PTU near Nirmal Tower at Barakhamba Road
12126.0,28.6303,77.2239,Statesman House,PTU‐05‐001,28.63092,77.22351,78.75070756645788,PTU near Nirmal Tower at Barakhamba Road
15452.0,28.630325,77.2075835,sent. colam bus school,CTU‐03‐007,28.6304,77.20682,74.98207656509872,"CTU in JJ Camp Palika Dham, Bangla sahib road."
1289.0,28.63035,77.21405,Hanuman Mandir / Shivaji Stadium,PTU(Petrol Pump 39),28.6292531,77.2124729,196.39065133570008,85  Baba Kharak Singh Marg  Block P  Connaught Place  New Delhi  Delhi 110001  India
11197.0,28.63035,77.21405,Hanuman Mandir / Shivaji Stadium,PTU(Petrol Pump 39),28.6292531,77.2124729,196.39065133570008,85  Baba Kharak Singh Marg  Block P  Connaught Place  New Delhi  Delhi 110001  India
1290.0,28.6306,77.2238,Statesman House,PTU‐05‐001,28.63092,77.22351,45.46647088371275,PTU near Nirmal Tower at Barakhamba Road
11198.0,28.6306,77.2238,Statesman House,PTU‐05‐001,28.63092,77.22351,45.46647088371275,PTU near Nirmal Tower at Barakhamba Road
15270.0,28.6306350126376,77.2192656832202,Super Bazar Conn. Place,PTU‐01‐017,28.6306933,77.2198687,59.20948344473993,PTU at Middle Circle F Block near RR‐7
2711.0,28.630641,77.198066,Kali Bari Marg,PTU‐03‐017,28.6287,77.19861,222.26404569965612,PTU near Central School Opp. Bagga Tent House at udhyan marg
12436.0,28.630641,77.198066,Kali Bari Marg,PTU‐03‐017,28.6287,77.19861,222.26404569965612,PTU near Central School Opp. Bagga Tent House at udhyan marg
4588.0,28.63065,77.2383,Rouse Avenue(Bal Bhawan),PTU‐05‐007,28.6261832,77.23897252,501.0038914778114,PTU  at college Lane Opp. Railway Qtrs. near Tilak Bridge railway station
4924.0,28.6307,77.1978,Kali Bari Mandir,PTU‐03‐019,28.6290308,77.1965747,220.7968456509807,"PTU near Birla Mandir lane, Mandir Marg"
5074.0,28.6307,77.1981,Kali Bari,PTU‐03‐017,28.6287,77.19861,227.89225337469605,PTU near Central School Opp. Bagga Tent House at udhyan marg
3482.0,28.630717,77.197933,Kali Bari Marg Crossing,PTU‐03‐017,28.6287,77.19861,233.81080638075775,PTU near Central School Opp. Bagga Tent House at udhyan marg
13043.0,28.630717,77.197933,Kali Bari Marg Crossing,PTU‐03‐017,28.6287,77.19861,233.81080638075775,PTU near Central School Opp. Bagga Tent House at udhyan marg
20106.0,28.6308,77.2172,Regal,PTU‐01‐027,28.63071,77.21629,89.37682750826082,Urinal Block in lane behind Mohan Singh Place
14008.0,28.6308,77.2172,Regal,PTU‐01‐027,28.63071,77.21629,89.37682750826082,Urinal Block in lane behind Mohan Singh Place
4073.0,28.631236,77.233965,Mata Sundari Mor Woman Court DDU Marg,PTU‐04‐005,28.62994026,77.23252684,201.1483476866199,PTU at Jantar Mantar Road
4022.0,28.631375,77.234203,Mata Sundari Mor Woman Court DDU Marg,PTU‐04‐005,28.62994026,77.23252684,228.50324562901807,PTU at Jantar Mantar Road
1281.0,28.6321026,77.1902553,Upper Ridge Road,PTU‐03‐020,28.6320663,77.1903342,8.694197151881234,"PTU at  Shankar Road, Ravinder Rangshala Side"
11189.0,28.6321026,77.1902553,Upper Ridge Road,PTU‐03‐020,28.6320663,77.1903342,8.694197151881234,"PTU at  Shankar Road, Ravinder Rangshala Side"
3553.0,28.63215,77.190017,Upper Ridge Road,PTU‐03‐020,28.6320663,77.1903342,32.32664509834927,"PTU at  Shankar Road, Ravinder Rangshala Side"
13094.0,28.63215,77.190017,Upper Ridge Road,PTU‐03‐020,28.6320663,77.1903342,32.32664509834927,"PTU at  Shankar Road, Ravinder Rangshala Side"
20336.0,28.6322,77.1899,Ridge Road,PTU‐03‐020,28.6320663,77.1903342,44.90893547114808,"PTU at  Shankar Road, Ravinder Rangshala Side"
2015.0,28.63225,77.205467,Gole Market (Bhai Veer Singh Marg),PTU‐03‐010,28.63313,77.2056,98.7087298159612,PTU at Gole Market Near Hanuman Mandir tikona Park
11848.0,28.63225,77.205467,Gole Market (Bhai Veer Singh Marg),PTU‐03‐010,28.63313,77.2056,98.7087298159612,PTU at Gole Market Near Hanuman Mandir tikona Park
20041.0,28.632273,77.205508,Gole Market,PTU‐03‐010,28.63313,77.2056,95.71612827378227,PTU at Gole Market Near Hanuman Mandir tikona Park
15164.0,28.632279710264484,77.20536947250369,Gole Market (Bhai Veer Singh Marg),PTU‐03‐010,28.63313,77.2056,97.18796438744506,PTU at Gole Market Near Hanuman Mandir tikona Park
2710.0,28.632285,77.199257,Laxmi Narayan Temple,PTU(Petrol Pump 25),28.6331287,77.2014599,234.57324923165476,23 /4A  Old Ramakrishna Ashram Marg  Edward Square  Gole Market  New Delhi  Delhi 110001  India
12435.0,28.632285,77.199257,Laxmi Narayan Temple,PTU(Petrol Pump 25),28.6331287,77.2014599,234.57324923165476,23 /4A  Old Ramakrishna Ashram Marg  Edward Square  Gole Market  New Delhi  Delhi 110001  India
5073.0,28.6323,77.1993,Laxmi Narayan Mandir,PTU(Petrol Pump 25),28.6331287,77.2014599,230.05979804945937,23 /4A  Old Ramakrishna Ashram Marg  Edward Square  Gole Market  New Delhi  Delhi 110001  India
3392.0,28.6323,77.2165,Shivaji Stadium Terminal,PTU‐01‐002,28.63317,77.21635,97.84100976940998,PTU near S.B.S. Marg (Outer Circle CP)
12975.0,28.6323,77.2165,Shivaji Stadium Terminal,PTU‐01‐002,28.63317,77.21635,97.84100976940998,PTU near S.B.S. Marg (Outer Circle CP)
21758.0,28.632467,77.21565,Shivaji Stadium Terminal,PTU‐03‐001,28.63198,77.21562,54.23102575289765,"PTU at bus terminal, Shivaji Stadium"
15090.0,28.632467,77.21565,Shivaji Stadium Terminal,PTU‐03‐001,28.63198,77.21562,54.23102575289765,"PTU at bus terminal, Shivaji Stadium"
3184.0,28.632583,77.215467,Shivaji Stadium Terminal,PTU‐03‐001,28.63198,77.21562,68.6931652720911,"PTU at bus terminal, Shivaji Stadium"
12813.0,28.632583,77.215467,Shivaji Stadium Terminal,PTU‐03‐001,28.63198,77.21562,68.6931652720911,"PTU at bus terminal, Shivaji Stadium"
14660.0,28.632583,77.22305,Super Bazar,PTU‐01‐038,28.63291,77.22352,58.53380675679748,PTU in Lane behind Mayur Bhawan near Shankar Market.
14109.0,28.6326165,77.2422835,Express Building-DC2809,PTU‐05‐007,28.6261832,77.23897252,784.954083951705,PTU  at college Lane Opp. Railway Qtrs. near Tilak Bridge railway station
830.0,28.632651,77.223088,Super Bazar,PTU‐01‐038,28.63291,77.22352,51.05907019149459,PTU in Lane behind Mayur Bhawan near Shankar Market.
10775.0,28.632651,77.223088,Super Bazar,PTU‐01‐038,28.63291,77.22352,51.05907019149459,PTU in Lane behind Mayur Bhawan near Shankar Market.
4074.0,28.632654,77.231545,Govt Sr Sec School DDU Marg,PTU‐04‐005,28.62994026,77.23252684,316.6040574798773,PTU at Jantar Mantar Road
13448.0,28.632654,77.231545,Govt Sr Sec School DDU Marg,PTU‐04‐005,28.62994026,77.23252684,316.6040574798773,PTU at Jantar Mantar Road
1272.0,28.632683,77.18875,Ridge Road,PTU‐03‐020,28.6320663,77.1903342,169.13808434610365,"PTU at  Shankar Road, Ravinder Rangshala Side"
11181.0,28.632683,77.18875,Ridge Road,PTU‐03‐020,28.6320663,77.1903342,169.13808434610365,"PTU at  Shankar Road, Ravinder Rangshala Side"
2051.0,28.6326953,77.1890118,Ridge Road,PTU‐03‐020,28.6320663,77.1903342,146.79561240619262,"PTU at  Shankar Road, Ravinder Rangshala Side"
11873.0,28.6326953,77.1890118,Ridge Road,PTU‐03‐020,28.6320663,77.1903342,146.79561240619262,"PTU at  Shankar Road, Ravinder Rangshala Side"
513.0,28.632763,77.215806,Shivaji Stadium Terminal,PTU‐01‐002,28.63317,77.21635,69.76356767654272,PTU near S.B.S. Marg (Outer Circle CP)
10474.0,28.632763,77.215806,Shivaji Stadium Terminal,PTU‐01‐002,28.63317,77.21635,69.76356767654272,PTU near S.B.S. Marg (Outer Circle CP)
4021.0,28.632829,77.231727,Govt Sr Sec School DDU Marg,PTU‐04‐005,28.62994026,77.23252684,330.5627763743767,PTU at Jantar Mantar Road
13411.0,28.632829,77.231727,Govt Sr Sec School DDU Marg,PTU‐04‐005,28.62994026,77.23252684,330.5627763743767,PTU at Jantar Mantar Road
15092.0,28.63294263902553,77.24099457263948,Express Building-DC2809,PTU‐05‐007,28.6261832,77.23897252,777.0928934354306,PTU  at college Lane Opp. Railway Qtrs. near Tilak Bridge railway station
1449.0,28.63308300000001,77.21545,Shivaji Stadium Terminal,PTU‐01‐002,28.63317,77.21635,88.36793315443121,PTU near S.B.S. Marg (Outer Circle CP)
11337.0,28.63308300000001,77.21545,Shivaji Stadium Terminal,PTU‐01‐002,28.63317,77.21635,88.36793315443121,PTU near S.B.S. Marg (Outer Circle CP)
514.0,28.63325,77.212283,Shaheed Bhagat Singh Marg,PTU‐02‐010,28.63583,77.21035,343.3528249157132,PTU at Bangla Sahib Marg near Kalawati hospital
10475.0,28.63325,77.212283,Shaheed Bhagat Singh Marg,PTU‐02‐010,28.63583,77.21035,343.3528249157132,PTU at Bangla Sahib Marg near Kalawati hospital
15529.0,28.63348976728788,77.20935523509979,Shaheed Bhagat Singh Marg,PTU‐02‐009,28.63367,77.2087,67.01516091774437,"Bangla Sahib Marg,Near Bangla Sweets."
515.0,28.633562,77.209301,Shaheed Bhagat Singh Marg,PTU‐02‐009,28.63367,77.2087,59.87194495946171,"Bangla Sahib Marg,Near Bangla Sweets."
10476.0,28.633562,77.209301,Shaheed Bhagat Singh Marg,PTU‐02‐009,28.63367,77.2087,59.87194495946171,"Bangla Sahib Marg,Near Bangla Sweets."
4925.0,28.6336,77.2,Laxmi Narayan Mandir,PTU(Petrol Pump 25),28.6331287,77.2014599,151.81294746627628,23 /4A  Old Ramakrishna Ashram Marg  Edward Square  Gole Market  New Delhi  Delhi 110001  India
3483.0,28.63365,77.200033,Laxmi Narayan Temple,PTU(Petrol Pump 25),28.6331287,77.2014599,150.84232386717133,23 /4A  Old Ramakrishna Ashram Marg  Edward Square  Gole Market  New Delhi  Delhi 110001  India
13044.0,28.63365,77.200033,Laxmi Narayan Temple,PTU(Petrol Pump 25),28.6331287,77.2014599,150.84232386717133,23 /4A  Old Ramakrishna Ashram Marg  Edward Square  Gole Market  New Delhi  Delhi 110001  India
354.0,28.633864,77.240804,Express Building,PTU‐05‐007,28.6261832,77.23897252,872.5713321644778,PTU  at college Lane Opp. Railway Qtrs. near Tilak Bridge railway station
10328.0,28.633864,77.240804,Express Building,PTU‐05‐007,28.6261832,77.23897252,872.5713321644778,PTU  at college Lane Opp. Railway Qtrs. near Tilak Bridge railway station
4075.0,28.634285,77.228675,DDU Marg Railway Colony,PTU‐01‐039,28.63324445,77.22504054,373.1023328180685,PTU at Corner of Campa Cola Factory near Shanker Market
13449.0,28.634285,77.228675,DDU Marg Railway Colony,PTU‐01‐039,28.63324445,77.22504054,373.1023328180685,PTU at Corner of Campa Cola Factory near Shanker Market
4020.0,28.634426,77.228952,DDU Marg Railway Colony,PTU‐01‐039,28.63324445,77.22504054,403.7181436839017,PTU at Corner of Campa Cola Factory near Shanker Market
13410.0,28.634426,77.228952,DDU Marg Railway Colony,PTU‐01‐039,28.63324445,77.22504054,403.7181436839017,PTU at Corner of Campa Cola Factory near Shanker Market
516.0,28.6347,77.2037,Gole Market,CTU‐03‐006,28.63392075,77.20347432,89.40415381199804,"CTU in C‐32, J.J Camp, Peshwa Road"
10477.0,28.6347,77.2037,Gole Market,CTU‐03‐006,28.63392075,77.20347432,89.40415381199804,"CTU in C‐32, J.J Camp, Peshwa Road"
2014.0,28.6352,77.2031,Gole Market,CTU‐03‐006,28.63392075,77.20347432,146.86227835319696,"CTU in C‐32, J.J Camp, Peshwa Road"
11847.0,28.6352,77.2031,Gole Market,CTU‐03‐006,28.63392075,77.20347432,146.86227835319696,"CTU in C‐32, J.J Camp, Peshwa Road"
14795.0,28.6352,77.2055,Gole Market,PTU‐02‐012,28.63397,77.20614,150.3573314730166,"PTU at Dr. Lane, behind Narula’s Gole market"
2722.0,28.635295,77.205543,Gole Market,PTU‐02‐012,28.63397,77.20614,158.4355317981523,"PTU at Dr. Lane, behind Narula’s Gole market"
12445.0,28.635295,77.205543,Gole Market,PTU‐02‐012,28.63397,77.20614,158.4355317981523,"PTU at Dr. Lane, behind Narula’s Gole market"
15357.0,28.63560959,77.20220816,gole market sec-4 (sbs marg),PTU‐02‐017,28.6363602,77.2020962,84.17620756012079,"PTU at N P boys sr. Sec .School, Mandir Marg"
20107.0,28.6357,77.2193,Marina,PTU‐01‐005,28.63567,77.21921,9.395593640036736,PTU Adjoining State Entry Road  (Outer Circle CP)
15356.0,28.63577578,77.20192398,BIRLA MANDIR,PTU‐02‐017,28.6363602,77.2020962,67.12291295544392,"PTU at N P boys sr. Sec .School, Mandir Marg"
15746.0,28.6360708764676,77.2143182685021,Lady Harding Hospital,PTU‐02‐008,28.6354356,77.2149509,93.81843683887674,PTU outside Lady Harding Hospital on Panchkuian Road
2879.0,28.6361752,77.2141483,Sucheta Kriplani Hospital,PTU‐02‐008,28.6354356,77.2149509,113.57288041576824,PTU outside Lady Harding Hospital on Panchkuian Road
12574.0,28.6361752,77.2141483,Sucheta Kriplani Hospital,PTU‐02‐008,28.6354356,77.2149509,113.57288041576824,PTU outside Lady Harding Hospital on Panchkuian Road
4076.0,28.636308,77.225156,Govt Press Kali Mandir,PTU‐01‐040,28.63382,77.22464,281.1990098836672,"PTU near Narula Paneer Bhandar, Shankar Market"
13450.0,28.636308,77.225156,Govt Press Kali Mandir,PTU‐01‐040,28.63382,77.22464,281.1990098836672,"PTU near Narula Paneer Bhandar, Shankar Market"
16018.0,28.636419286399,77.1836568254554,Sanatan Dharam Mandir Shankar Road,PTU‐03‐020,28.6320663,77.1903342,811.7717809642761,"PTU at  Shankar Road, Ravinder Rangshala Side"
4019.0,28.636592,77.225232,Govt Press Kali Mandir,PTU‐01‐040,28.63382,77.22464,313.60043837718973,"PTU near Narula Paneer Bhandar, Shankar Market"
13409.0,28.636592,77.225232,Govt Press Kali Mandir,PTU‐01‐040,28.63382,77.22464,313.60043837718973,"PTU near Narula Paneer Bhandar, Shankar Market"
1280.0,28.6366,77.183683,New Rajender Nagar,PTU‐03‐020,28.6320663,77.1903342,821.8918239652942,"PTU at  Shankar Road, Ravinder Rangshala Side"
11188.0,28.6366,77.183683,New Rajender Nagar,PTU‐03‐020,28.6320663,77.1903342,821.8918239652942,"PTU at  Shankar Road, Ravinder Rangshala Side"
1639.0,28.6367,77.2183,Marina,PTU‐07‐014,28.63606,77.21819,71.96991224823293,"PTU at Indira Gandhi Memorial, 1 Safdarjung Road."
11509.0,28.6367,77.2183,Marina,PTU‐07‐014,28.63606,77.21819,71.96991224823293,"PTU at Indira Gandhi Memorial, 1 Safdarjung Road."
15788.0,28.6368053609176,77.1832421285325,Sanatan Dharam Mandir Shankar Road,PTU‐03‐020,28.6320663,77.1903342,869.9203140015892,"PTU at  Shankar Road, Ravinder Rangshala Side"
3218.0,28.636825,77.182967,New Rajinder Nagar Post Office,PTU‐03‐020,28.6320663,77.1903342,892.7255032338177,"PTU at  Shankar Road, Ravinder Rangshala Side"
12837.0,28.636825,77.182967,New Rajinder Nagar Post Office,PTU‐03‐020,28.6320663,77.1903342,892.7255032338177,"PTU at  Shankar Road, Ravinder Rangshala Side"
1776.0,28.6369,77.2185,Marina,PTU‐07‐014,28.63606,77.21819,98.18125584901804,"PTU at Indira Gandhi Memorial, 1 Safdarjung Road."
11631.0,28.6369,77.2185,Marina,PTU‐07‐014,28.63606,77.21819,98.18125584901804,"PTU at Indira Gandhi Memorial, 1 Safdarjung Road."
1273.0,28.63715,77.1924,CPRTI/ Delhi Jal Board,PTU‐03‐020,28.6320663,77.1903342,600.1589038977392,"PTU at  Shankar Road, Ravinder Rangshala Side"
14794.0,28.63731386,77.20721805,Rk Ashram Metro Station,PTU‐02‐013,28.63701,77.20676,56.034875129883176,PTU at R.K. Ashram Marg Near 750 double Storey no. I
1111.0,28.6374316,77.2029278,PS Mandir Marg,PTU‐02‐017,28.6363602,77.2020962,144.15144182977838,"PTU at N P boys sr. Sec .School, Mandir Marg"
11041.0,28.6374316,77.2029278,PS Mandir Marg,PTU‐02‐017,28.6363602,77.2020962,144.15144182977838,"PTU at N P boys sr. Sec .School, Mandir Marg"
2050.0,28.6374333333333,77.1927833333333,CPRTI,PTU‐03‐020,28.6320663,77.1903342,642.8737011990021,"PTU at  Shankar Road, Ravinder Rangshala Side"
2723.0,28.637441,77.207065,Rama Krishna Ashram Marg,PTU‐02‐013,28.63701,77.20676,56.41637402620644,PTU at R.K. Ashram Marg Near 750 double Storey no. I
12446.0,28.637441,77.207065,Rama Krishna Ashram Marg,PTU‐02‐013,28.63701,77.20676,56.41637402620644,PTU at R.K. Ashram Marg Near 750 double Storey no. I
15444.0,28.63758300000001,77.202967,PS Mandir Marg,PTU‐02‐017,28.6363602,77.2020962,160.34298272045473,"PTU at N P boys sr. Sec .School, Mandir Marg"
15441.0,28.6381,77.20585,Rama Krishna Ashram Marg,PTU‐02‐014,28.637,77.20674,150.01662736847427,PTU at R.K. Ashram Marg Near 750 double Storey no. II
2878.0,28.6381,77.2108,Kalawati Hospital,PTU‐02‐010,28.63583,77.21035,256.2045027799212,PTU at Bangla Sahib Marg near Kalawati hospital
12573.0,28.6381,77.2108,Kalawati Hospital,PTU‐02‐010,28.63583,77.21035,256.2045027799212,PTU at Bangla Sahib Marg near Kalawati hospital
829.0,28.638657,77.224181,Shivaji Park,PTU‐01‐006,28.63546951,77.22188492,419.3265909828448,PTU towards Minto road (Outer circus CP )
10774.0,28.638657,77.224181,Shivaji Park,PTU‐01‐006,28.63546951,77.22188492,419.3265909828448,PTU towards Minto road (Outer circus CP )
1033.0,28.638674,77.223986,Shivaji Park,PTU‐01‐006,28.63546951,77.22188492,411.11034135312025,PTU towards Minto road (Outer circus CP )
10966.0,28.638674,77.223986,Shivaji Park,PTU‐01‐006,28.63546951,77.22188492,411.11034135312025,PTU towards Minto road (Outer circus CP )
517.0,28.638783,77.20345,PS Mandir Marg,PTU‐02‐016,28.63986,77.20456,161.4811937483988,"PTU  Opp. Balmiki Mandir, Mandir Marg"
10478.0,28.638783,77.20345,PS Mandir Marg,PTU‐02‐016,28.63986,77.20456,161.4811937483988,"PTU  Opp. Balmiki Mandir, Mandir Marg"
20108.0,28.6388,77.2233,Minto Road,PTU‐01‐006,28.63546951,77.22188492,395.2454935150941,PTU towards Minto road (Outer circus CP )
3217.0,28.63894,77.18816,Sir Ganga Ram Hospital,PTU‐03‐020,28.6320663,77.1903342,793.2277603603383,"PTU at  Shankar Road, Ravinder Rangshala Side"
3943.0,28.639119,77.188024,Sir Ganga Ram Hospital,PTU‐03‐020,28.6320663,77.1903342,815.9908925554558,"PTU at  Shankar Road, Ravinder Rangshala Side"
13353.0,28.639119,77.188024,Sir Ganga Ram Hospital,PTU‐03‐020,28.6320663,77.1903342,815.9908925554558,"PTU at  Shankar Road, Ravinder Rangshala Side"
4328.0,28.639417,77.223773,Minto Road Terminal,PTU‐01‐006,28.63546951,77.22188492,476.04799322331473,PTU towards Minto road (Outer circus CP )
13609.0,28.639417,77.223773,Minto Road Terminal,PTU‐01‐006,28.63546951,77.22188492,476.04799322331473,PTU towards Minto road (Outer circus CP )
518.0,28.639867,77.2043,Balmiki Mandir,PTU‐02‐016,28.63986,77.20456,25.38538670814005,"PTU  Opp. Balmiki Mandir, Mandir Marg"
10479.0,28.639867,77.2043,Balmiki Mandir,PTU‐02‐016,28.63986,77.20456,25.38538670814005,"PTU  Opp. Balmiki Mandir, Mandir Marg"
1110.0,28.639967,77.204483,Balmiki Mandir Marg,PTU‐02‐016,28.63986,77.20456,14.0721652714528,"PTU  Opp. Balmiki Mandir, Mandir Marg"
11040.0,28.639967,77.204483,Balmiki Mandir Marg,PTU‐02‐016,28.63986,77.20456,14.0721652714528,"PTU  Opp. Balmiki Mandir, Mandir Marg"
3774.0,28.6402,77.2067,Panchkuian Road,PTU‐02‐018,28.6386491,77.2078529,205.9095968707041,PTU at Metro Station R K Ashram Marg
13257.0,28.6402,77.2067,Panchkuian Road,PTU‐02‐018,28.6386491,77.2078529,205.9095968707041,PTU at Metro Station R K Ashram Marg
2877.0,28.640283,77.206933,Panchkuian Road,PTU‐02‐018,28.6386491,77.2078529,202.6509806240877,PTU at Metro Station R K Ashram Marg
12572.0,28.640283,77.206933,Panchkuian Road,PTU‐02‐018,28.6386491,77.2078529,202.6509806240877,PTU at Metro Station R K Ashram Marg
3761.0,28.640495,77.208271,Chitra Gupta Road,PTU‐02‐018,28.6386491,77.2078529,209.2709920652372,PTU at Metro Station R K Ashram Marg
13245.0,28.640495,77.208271,Chitra Gupta Road,PTU‐02‐018,28.6386491,77.2078529,209.2709920652372,PTU at Metro Station R K Ashram Marg
2724.0,28.640498,77.20817,Chitra Gupta Road,PTU‐02‐018,28.6386491,77.2078529,207.9043049856157,PTU at Metro Station R K Ashram Marg
12447.0,28.640498,77.20817,Chitra Gupta Road,PTU‐02‐018,28.6386491,77.2078529,207.9043049856157,PTU at Metro Station R K Ashram Marg
2049.0,28.640833,77.19515,Ravinder Rangshala,PTU(Petrol Pump 26),28.6443671,77.1989713,541.7487266547589,D‐2  Dr Bhim Rao Ambedkar Marg  Ashoka Pahari  Subhash Nagar  Jhandewalan  New Delhi  Delhi 110005  India
11872.0,28.640833,77.19515,Ravinder Rangshala,PTU(Petrol Pump 26),28.6443671,77.1989713,541.7487266547589,D‐2  Dr Bhim Rao Ambedkar Marg  Ashoka Pahari  Subhash Nagar  Jhandewalan  New Delhi  Delhi 110005  India
964.0,28.640867,77.225733,Vivekanand Marg / Minto Road,PTU‐01‐006,28.63546951,77.22188492,707.9825129187318,PTU towards Minto road (Outer circus CP )
10901.0,28.640867,77.225733,Vivekanand Marg / Minto Road,PTU‐01‐006,28.63546951,77.22188492,707.9825129187318,PTU towards Minto road (Outer circus CP )
14869.0,28.6409,77.19505,Ravinder Rangshala,PTU(Petrol Pump 26),28.6443671,77.1989713,543.1991177570202,D‐2  Dr Bhim Rao Ambedkar Marg  Ashoka Pahari  Subhash Nagar  Jhandewalan  New Delhi  Delhi 110005  India
1274.0,28.6409235,77.1949641,Ravinder Rangshala,PTU(Petrol Pump 26),28.6443671,77.1989713,547.3054135562265,D‐2  Dr Bhim Rao Ambedkar Marg  Ashoka Pahari  Subhash Nagar  Jhandewalan  New Delhi  Delhi 110005  India
11182.0,28.6409235,77.1949641,Ravinder Rangshala,PTU(Petrol Pump 26),28.6443671,77.1989713,547.3054135562265,D‐2  Dr Bhim Rao Ambedkar Marg  Ashoka Pahari  Subhash Nagar  Jhandewalan  New Delhi  Delhi 110005  India
16000.0,28.6409532182595,77.195274533322,Asharam Bapu Ashram,PTU(Petrol Pump 26),28.6443671,77.1989713,523.686650658678,D‐2  Dr Bhim Rao Ambedkar Marg  Ashoka Pahari  Subhash Nagar  Jhandewalan  New Delhi  Delhi 110005  India
15898.0,28.6410709189696,77.1951911631597,Asharam Bapu Ashram,PTU(Petrol Pump 26),28.6443671,77.1989713,520.0181334309916,D‐2  Dr Bhim Rao Ambedkar Marg  Ashoka Pahari  Subhash Nagar  Jhandewalan  New Delhi  Delhi 110005  India
962.0,28.641133,77.229676,Zakir Husain College,PTU‐01‐040,28.63382,77.22464,950.1531881615216,"PTU near Narula Paneer Bhandar, Shankar Market"
10899.0,28.641133,77.229676,Zakir Husain College,PTU‐01‐040,28.63382,77.22464,950.1531881615216,"PTU near Narula Paneer Bhandar, Shankar Market"
14188.0,28.64115,77.229617,Zakir Husain College,PTU‐01‐040,28.63382,77.22464,948.8109786172488,"PTU near Narula Paneer Bhandar, Shankar Market"
15188.0,28.64115,77.230067,Zakir Husain College,PTU‐01‐040,28.63382,77.22464,972.025225037279,"PTU near Narula Paneer Bhandar, Shankar Market"
743.0,28.641166,77.230002,Zakir Husain College,PTU‐01‐040,28.63382,77.22464,970.0809766385772,"PTU near Narula Paneer Bhandar, Shankar Market"
10694.0,28.641166,77.230002,Zakir Husain College,PTU‐01‐040,28.63382,77.22464,970.0809766385772,"PTU near Narula Paneer Bhandar, Shankar Market"
1640.0,28.6415,77.218517,New Delhi Railway Station Gate 1,PTU‐02‐007,28.64163101,77.21885755,36.28638778123379,PTU at Chelmsford Road near New Delhi Rly. Station
11510.0,28.6415,77.218517,New Delhi Railway Station Gate 1,PTU‐02‐007,28.64163101,77.21885755,36.28638778123379,PTU at Chelmsford Road near New Delhi Rly. Station
1034.0,28.64155,77.22615,Vivekanand Marg / Minto Road,PTU‐02‐007,28.64163101,77.21885755,711.7169127336019,PTU at Chelmsford Road near New Delhi Rly. Station
10967.0,28.64155,77.22615,Vivekanand Marg / Minto Road,PTU‐02‐007,28.64163101,77.21885755,711.7169127336019,PTU at Chelmsford Road near New Delhi Rly. Station
3216.0,28.641581,77.190017,Janki Devi College,PTU(Petrol Pump 26),28.6443671,77.1989713,927.1181120461788,D‐2  Dr Bhim Rao Ambedkar Marg  Ashoka Pahari  Subhash Nagar  Jhandewalan  New Delhi  Delhi 110005  India
3944.0,28.641629,77.1898,Janki Devi College,PTU(Petrol Pump 26),28.6443671,77.1989713,945.371135018348,D‐2  Dr Bhim Rao Ambedkar Marg  Ashoka Pahari  Subhash Nagar  Jhandewalan  New Delhi  Delhi 110005  India
13354.0,28.641629,77.1898,Janki Devi College,PTU(Petrol Pump 26),28.6443671,77.1989713,945.371135018348,D‐2  Dr Bhim Rao Ambedkar Marg  Ashoka Pahari  Subhash Nagar  Jhandewalan  New Delhi  Delhi 110005  India
1109.0,28.64165,77.204717,Panchkuian Road Banwari Lal Hospital,PTU‐02‐016,28.63986,77.20456,199.6277547126174,"PTU  Opp. Balmiki Mandir, Mandir Marg"
11039.0,28.64165,77.204717,Panchkuian Road Banwari Lal Hospital,PTU‐02‐016,28.63986,77.20456,199.6277547126174,"PTU  Opp. Balmiki Mandir, Mandir Marg"
1775.0,28.6416802,77.2185624,New Delhi Railway Station Gate 1,PTU‐02‐007,28.64163101,77.21885755,29.3179950405532,PTU at Chelmsford Road near New Delhi Rly. Station
11630.0,28.6416802,77.2185624,New Delhi Railway Station Gate 1,PTU‐02‐007,28.64163101,77.21885755,29.3179950405532,PTU at Chelmsford Road near New Delhi Rly. Station
519.0,28.6417,77.2042,Panchkuian Road Banwai Lal Hospital,PTU‐02‐016,28.63986,77.20456,207.59306982726093,"PTU  Opp. Balmiki Mandir, Mandir Marg"
10480.0,28.6417,77.2042,Panchkuian Road Banwai Lal Hospital,PTU‐02‐016,28.63986,77.20456,207.59306982726093,"PTU  Opp. Balmiki Mandir, Mandir Marg"
15451.0,28.64172166666669,77.2046233333333,Videocon Tower,PTU‐02‐016,28.63986,77.20456,207.1001361813941,"PTU  Opp. Balmiki Mandir, Mandir Marg"
3159.0,28.6418046356992,77.2239067471442,New Delhi Railway Station Gate 2,PTU‐02‐007,28.64163101,77.21885755,493.1215041569857,PTU at Chelmsford Road near New Delhi Rly. Station
12797.0,28.6418046356992,77.2239067471442,New Delhi Railway Station Gate 2,PTU‐02‐007,28.64163101,77.21885755,493.1215041569857,PTU at Chelmsford Road near New Delhi Rly. Station
1243.0,28.6419117112284,77.2236997344544,New Delhi Railway Station Gate 2,PTU‐02‐007,28.64163101,77.21885755,473.570846575895,PTU at Chelmsford Road near New Delhi Rly. Station
11158.0,28.6419117112284,77.2236997344544,New Delhi Railway Station Gate 2,PTU‐02‐007,28.64163101,77.21885755,473.570846575895,PTU at Chelmsford Road near New Delhi Rly. Station
742.0,28.642068,77.228325,JLN Marg,PTU‐01‐040,28.63382,77.22464,985.123939408738,"PTU near Narula Paneer Bhandar, Shankar Market"
10693.0,28.642068,77.228325,JLN Marg,PTU‐01‐040,28.63382,77.22464,985.123939408738,"PTU near Narula Paneer Bhandar, Shankar Market"
963.0,28.6421,77.22785,JLN Marg,PTU‐01‐040,28.63382,77.22464,972.530540836534,"PTU near Narula Paneer Bhandar, Shankar Market"
10900.0,28.6421,77.22785,JLN Marg,PTU‐01‐040,28.63382,77.22464,972.530540836534,"PTU near Narula Paneer Bhandar, Shankar Market"
15174.0,28.6426165,77.2270585,Jwahar Lal Nehru Marg,PTU‐02‐007,28.64163101,77.21885755,807.7823438720557,PTU at Chelmsford Road near New Delhi Rly. Station
1277.0,28.6429,77.2267,PS Kamla Market,PTU‐02‐007,28.64163101,77.21885755,778.2279349545317,PTU at Chelmsford Road near New Delhi Rly. Station
11185.0,28.6429,77.2267,PS Kamla Market,PTU‐02‐007,28.64163101,77.21885755,778.2279349545317,PTU at Chelmsford Road near New Delhi Rly. Station
14368.0,28.64294256,77.22370906,N D R Station G No 2,PTU‐02‐007,28.64163101,77.21885755,495.4013240610741,PTU at Chelmsford Road near New Delhi Rly. Station
1035.0,28.643042,77.226021,PS Kamla Market,PTU‐02‐007,28.64163101,77.21885755,716.4560702057921,PTU at Chelmsford Road near New Delhi Rly. Station
10968.0,28.643042,77.226021,PS Kamla Market,PTU‐02‐007,28.64163101,77.21885755,716.4560702057921,PTU at Chelmsford Road near New Delhi Rly. Station
15153.0,28.643083,77.226,PS Kamla Market,PTU‐02‐007,28.64163101,77.21885755,715.4714560130018,PTU at Chelmsford Road near New Delhi Rly. Station
741.0,28.643383,77.225733,Ajmeri Gate / Kamla Market,PTU‐02‐007,28.64163101,77.21885755,698.6692056812868,PTU at Chelmsford Road near New Delhi Rly. Station
10692.0,28.643383,77.225733,Ajmeri Gate / Kamla Market,PTU‐02‐007,28.64163101,77.21885755,698.6692056812868,PTU at Chelmsford Road near New Delhi Rly. Station
4429.0,28.643394,77.225784,Kamla Market Ajmeri Gate,PTU‐02‐007,28.64163101,77.21885755,703.7898425399184,PTU at Chelmsford Road near New Delhi Rly. Station
13667.0,28.643394,77.225784,Kamla Market Ajmeri Gate,PTU‐02‐007,28.64163101,77.21885755,703.7898425399184,PTU at Chelmsford Road near New Delhi Rly. Station
520.0,28.643667,77.201033,Meghdoot Bhawan,PTU(Petrol Pump 26),28.6443671,77.1989713,215.729378771788,D‐2  Dr Bhim Rao Ambedkar Marg  Ashoka Pahari  Subhash Nagar  Jhandewalan  New Delhi  Delhi 110005  India
10481.0,28.643667,77.201033,Meghdoot Bhawan,PTU(Petrol Pump 26),28.6443671,77.1989713,215.729378771788,D‐2  Dr Bhim Rao Ambedkar Marg  Ashoka Pahari  Subhash Nagar  Jhandewalan  New Delhi  Delhi 110005  India
2048.0,28.64376,77.19701,Karol Bagh Gurgaon Stand,PTU(Petrol Pump 26),28.6443671,77.1989713,202.95207177346623,D‐2  Dr Bhim Rao Ambedkar Marg  Ashoka Pahari  Subhash Nagar  Jhandewalan  New Delhi  Delhi 110005  India
11871.0,28.64376,77.19701,Karol Bagh Gurgaon Stand,PTU(Petrol Pump 26),28.6443671,77.1989713,202.95207177346623,D‐2  Dr Bhim Rao Ambedkar Marg  Ashoka Pahari  Subhash Nagar  Jhandewalan  New Delhi  Delhi 110005  India
1275.0,28.643833,77.1969,Karol Bagh Gurgaon Stand,PTU(Petrol Pump 26),28.6443671,77.1989713,210.6745842944965,D‐2  Dr Bhim Rao Ambedkar Marg  Ashoka Pahari  Subhash Nagar  Jhandewalan  New Delhi  Delhi 110005  India
11183.0,28.643833,77.1969,Karol Bagh Gurgaon Stand,PTU(Petrol Pump 26),28.6443671,77.1989713,210.6745842944965,D‐2  Dr Bhim Rao Ambedkar Marg  Ashoka Pahari  Subhash Nagar  Jhandewalan  New Delhi  Delhi 110005  India
15147.0,28.64386649270493,77.22433537244798,kamla market,PTU‐02‐007,28.64163101,77.21885755,589.5346836362914,PTU at Chelmsford Road near New Delhi Rly. Station
522.0,28.643911,77.188747,Karol Bagh Metro Station,PTU(Petrol Pump 26),28.6443671,77.1989713,999.0388942442167,D‐2  Dr Bhim Rao Ambedkar Marg  Ashoka Pahari  Subhash Nagar  Jhandewalan  New Delhi  Delhi 110005  India
10483.0,28.643911,77.188747,Karol Bagh Metro Station,PTU(Petrol Pump 26),28.6443671,77.1989713,999.0388942442167,D‐2  Dr Bhim Rao Ambedkar Marg  Ashoka Pahari  Subhash Nagar  Jhandewalan  New Delhi  Delhi 110005  India
737.0,28.644,77.200983,Meghdoot Bhawan,PTU(Petrol Pump 26),28.6443671,77.1989713,200.51302931574045,D‐2  Dr Bhim Rao Ambedkar Marg  Ashoka Pahari  Subhash Nagar  Jhandewalan  New Delhi  Delhi 110005  India
10688.0,28.644,77.200983,Meghdoot Bhawan,PTU(Petrol Pump 26),28.6443671,77.1989713,200.51302931574045,D‐2  Dr Bhim Rao Ambedkar Marg  Ashoka Pahari  Subhash Nagar  Jhandewalan  New Delhi  Delhi 110005  India
1036.0,28.644083,77.22405,Ajmeri Gate / Kamla Market,PTU‐02‐007,28.64163101,77.21885755,575.4131332299013,PTU at Chelmsford Road near New Delhi Rly. Station
10969.0,28.644083,77.22405,Ajmeri Gate / Kamla Market,PTU‐02‐007,28.64163101,77.21885755,575.4131332299013,PTU at Chelmsford Road near New Delhi Rly. Station
738.0,28.6441,77.2036,Videocon Tower,PTU‐02‐016,28.63986,77.20456,480.68437959366753,"PTU  Opp. Balmiki Mandir, Mandir Marg"
10689.0,28.6441,77.2036,Videocon Tower,PTU‐02‐016,28.63986,77.20456,480.68437959366753,"PTU  Opp. Balmiki Mandir, Mandir Marg"
4984.0,28.6441,77.2175,New Delhi Railway Station Flyover,PTU‐02‐007,28.64163101,77.21885755,304.8321558411413,PTU at Chelmsford Road near New Delhi Rly. Station
735.0,28.6442,77.189,Karol Bagh Metro Station,PTU(Petrol Pump 26),28.6443671,77.1989713,973.2374999865074,D‐2  Dr Bhim Rao Ambedkar Marg  Ashoka Pahari  Subhash Nagar  Jhandewalan  New Delhi  Delhi 110005  India
10686.0,28.6442,77.189,Karol Bagh Metro Station,PTU(Petrol Pump 26),28.6443671,77.1989713,973.2374999865074,D‐2  Dr Bhim Rao Ambedkar Marg  Ashoka Pahari  Subhash Nagar  Jhandewalan  New Delhi  Delhi 110005  India
15968.0,28.6443382379663,77.2239525841735,Kamla Market,PTU‐02‐007,28.64163101,77.21885755,581.2378505684222,PTU at Chelmsford Road near New Delhi Rly. Station
